City_ID,City,Lat,Lng,Max Temp,Humidity,Cloudiness,Wind Speed,Country,Date
0,margaret river,-33.95,115.0667,65.84,78,100,9.73,AU,1716213033
1,azul,-36.777,-59.8585,49.19,71,30,14.92,AR,1716212890
2,huarmey,-10.0681,-78.1522,68.29,82,55,7.9,PE,1716213033
3,dumka,24.2667,87.25,92.46,35,48,5.37,IN,1716213034
4,olonkinbyen,70.9221,-8.7187,25.25,64,100,14.65,SJ,1716213034
5,blackmans bay,-43.0167,147.3167,45.73,88,79,4.12,AU,1716213034
6,chibougamau,49.9168,-74.3659,62.22,63,0,8.05,CA,1716213034
7,udachny,66.4167,112.4,36.45,61,100,14.9,RU,1716213034
8,invercargill,-46.4,168.35,41.02,92,78,1.59,NZ,1716213034
9,aykhal,66.0,111.5,29.34,97,100,18.14,RU,1716213035
10,dudinka,69.4058,86.1778,29.68,95,100,23.0,RU,1716213035
11,port-aux-francais,-49.35,70.2167,41.95,85,50,28.97,TF,1716213035
12,melekeok village,7.4957,134.6367,82.96,83,75,4.61,PW,1716213035
13,whitehorse,60.7161,-135.0538,38.17,63,75,12.66,CA,1716213035
14,ta`u,-14.2336,-169.5144,83.68,76,48,21.81,AS,1716213036
15,kuanda,56.3161,116.0806,47.07,80,47,6.46,RU,1716213036
16,albany,42.6001,-73.9662,70.9,72,60,1.01,US,1716212756
17,el calafate,-50.3408,-72.2768,36.82,80,47,3.89,AR,1716212992
18,isafjordur,66.0755,-23.124,48.24,61,75,9.22,IS,1716213037
19,shambu,9.5667,37.1,64.02,64,99,2.62,ET,1716213037
20,jodiya bandar,22.7167,70.2833,84.96,82,0,24.7,IN,1716213037
21,labrador city,52.9463,-66.9114,60.19,59,75,18.99,CA,1716213037
22,cabo san lucas,22.8909,-109.9124,79.11,43,75,9.22,MX,1716212828
23,avarua,-21.2078,-159.775,75.25,78,75,8.05,CK,1716213038
24,bathsheba,13.2167,-59.5167,86.61,74,20,17.27,BB,1716213038
25,ancud,-41.8697,-73.8203,49.35,84,100,17.2,CL,1716213038
26,xilin hot,43.9667,116.0333,68.4,16,100,5.97,CN,1716213038
27,mount pearl,47.5166,-52.7813,51.46,78,75,11.5,CA,1716212892
28,dunedin,-45.8742,170.5036,44.8,97,100,4.16,NZ,1716212867
29,hadibu,12.65,54.0333,87.22,72,73,5.61,YE,1716213039
30,waitangi,-43.9535,-176.5597,51.82,73,3,12.24,NZ,1716213039
31,adamstown,-25.066,-130.1015,68.09,63,100,12.03,PN,1716213039
32,burgos,42.3394,-3.7079,57.61,54,40,6.91,ES,1716213039
33,iqaluit,63.7506,-68.5145,24.53,73,20,19.57,CA,1716213039
34,jamestown,42.097,-79.2353,73.02,75,0,3.44,US,1716212893
35,tiksi,71.6872,128.8694,9.77,100,13,1.86,RU,1716213040
36,saint-philippe,-21.3585,55.7679,71.19,85,90,17.94,RE,1716213040
37,ntui,4.45,11.6333,91.27,48,52,2.04,CM,1716213040
38,codrington,-38.2667,141.9667,54.84,55,100,11.61,AU,1716213040
39,cristalina,-16.7686,-47.6136,79.39,41,23,6.78,BR,1716213040
40,grytviken,-54.2811,-36.5092,36.5,91,70,11.65,GS,1716213040
41,bredasdorp,-34.5322,20.0403,73.58,43,59,6.85,ZA,1716213041
42,ushuaia,-54.8,-68.3,38.86,75,40,6.91,AR,1716213041
43,las lomitas,-24.7096,-60.593,61.09,54,0,6.29,AR,1716213041
44,georgetown,5.4112,100.3354,87.75,76,20,5.75,MY,1716212888
45,harrisonburg,38.4496,-78.8689,72.03,87,0,4.61,US,1716212994
46,dwarka,22.2394,68.9678,84.81,82,0,14.63,IN,1716213042
47,faya-largeau,17.9257,19.1043,114.69,4,0,11.5,TD,1716213042
48,longyearbyen,78.2186,15.6401,26.44,59,75,5.75,SJ,1716213042
49,kavaratti,10.5669,72.642,84.9,77,100,18.37,IN,1716213042
50,hawaiian paradise park,19.5933,-154.9731,72.03,98,100,4.61,US,1716213042
51,thompson,55.7435,-97.8558,32.16,100,100,6.91,CA,1716213043
52,i-n-salah,27.1935,2.4607,102.61,9,0,14.16,DZ,1716213043
53,lihue,21.9789,-159.3672,71.19,91,0,5.75,US,1716213043
54,beinamar,8.6698,15.3813,107.35,14,35,2.57,TD,1716213043
55,bani walid,31.7566,13.9942,107.98,7,100,16.62,LY,1716213043
56,mount gambier,-37.8333,140.7667,53.37,59,100,8.61,AU,1716213044
57,kamaishi,39.2667,141.8833,56.35,96,92,3.91,JP,1716213044
58,yerofey pavlovich,53.9667,121.9667,54.55,38,100,1.92,RU,1716213044
59,guadix,37.2993,-3.1392,70.56,35,33,15.93,ES,1716213044
60,edinburgh of the seven seas,-37.0676,-12.3116,54.84,63,97,22.37,SH,1716213044
61,brak,27.5496,14.2714,109.08,7,100,5.14,LY,1716213045
62,neiafu,-18.65,-173.9833,81.28,83,40,4.61,TO,1716213045
63,saudarkrokur,65.7461,-19.6394,46.78,80,100,9.78,IS,1716213045
64,mikomeseng,2.1361,10.6132,79.23,90,100,4.43,GQ,1716213045
65,gadzhiyevo,69.2551,33.3362,34.29,63,48,24.14,RU,1716213045
66,powell river,49.8496,-124.5361,50.0,93,75,2.3,CA,1716213046
67,saldanha,-33.0117,17.9442,73.45,65,39,10.25,ZA,1716213046
68,yuzhno-kurilsk,44.0306,145.8556,48.38,55,90,2.55,RU,1716213046
69,hermanus,-34.4187,19.2345,68.81,64,6,6.22,ZA,1716213046
70,bilibino,68.0546,166.4372,15.55,91,9,5.19,RU,1716213046
71,kolyvan',55.3053,82.7391,56.82,92,73,10.98,RU,1716213046
72,mulayjah,27.271,48.4242,103.87,10,0,5.14,SA,1716213047
73,usogorsk,63.4106,48.6872,49.66,80,100,6.93,RU,1716213047
74,bangkalan,-7.0455,112.7351,84.15,79,11,6.93,ID,1716213047
75,san patricio,28.017,-97.5169,84.04,73,4,10.63,US,1716213047
76,haiku-pauwela,20.9219,-156.3051,70.03,88,0,5.75,US,1716213047
77,tolanaro,-25.0319,46.9987,69.04,70,100,14.52,MG,1716213048
78,chonchi,-42.6128,-73.8092,44.11,95,100,4.34,CL,1716213048
79,mwene-ditu,-7.0,23.45,88.38,27,94,3.38,CD,1716213048
80,rio grande,-32.035,-52.0986,55.51,81,100,8.52,BR,1716212816
81,kenai,60.5544,-151.2583,40.14,85,0,9.22,US,1716213048
82,anadyr,64.75,177.4833,34.3,75,75,8.95,RU,1716213048
83,stanley,54.868,-1.6985,59.29,71,75,6.91,GB,1716213049
84,beloyarskiy,63.7119,66.6722,55.99,92,62,5.99,RU,1716213049
85,bilaspur,22.0833,82.15,93.74,28,94,7.65,IN,1716213049
86,matoury,4.8483,-52.3317,78.76,94,75,2.3,GF,1716213049
87,yellowknife,62.456,-114.3525,48.42,75,40,11.5,CA,1716213050
88,taoudenni,22.6783,-3.9836,103.33,10,100,1.32,ML,1716213050
89,chul'man,56.8479,124.9104,40.28,85,100,3.0,RU,1716213050
90,horta,38.5333,-28.6333,67.64,87,75,9.22,PT,1716213050
91,alta,69.9689,23.2717,34.2,76,75,16.11,NO,1716213050
92,prado,-17.3411,-39.2208,82.42,55,100,6.53,BR,1716213050
93,launceston,-41.45,147.1667,39.15,93,8,6.91,AU,1716213051
94,west island,-12.1568,96.8225,82.38,83,40,12.66,CC,1716213051
95,victoria falls,-17.9235,25.843,80.71,25,0,12.66,ZW,1716213051
96,prince albert,53.2001,-105.7677,37.35,93,100,6.91,CA,1716213051
97,hithadhoo,-0.6,73.0833,84.31,72,71,16.13,MV,1716213051
98,enewetak,11.3474,162.3373,80.62,85,100,16.35,MH,1716213051
99,vanino,49.0869,140.2543,49.93,49,19,0.51,RU,1716213051
100,ginir,7.1333,40.7,70.7,62,69,8.9,ET,1716213052
101,tete,-16.1564,33.5867,87.89,37,40,10.36,MZ,1716213052
102,mokhsogollokh,61.4681,128.9203,45.23,48,84,5.91,RU,1716213052
103,port mathurin,-19.6833,63.4167,76.95,68,2,16.58,MU,1716213052
104,colonia,50.9333,6.95,73.96,58,20,4.61,DE,1716213035
105,papatowai,-46.5619,169.4708,44.69,89,100,4.54,NZ,1716213053
106,la passe,45.5549,-0.8967,62.02,86,100,8.81,FR,1716213053
107,kapuskasing,49.4169,-82.4331,57.29,51,75,6.91,CA,1716213053
108,bel ombre,-4.6167,55.4167,85.84,74,20,11.5,SC,1716213053
109,consett,54.854,-1.8316,58.23,67,87,7.25,GB,1716212755
110,arteche,12.2645,125.4048,80.76,83,47,4.72,PH,1716213054
111,bushehr,28.9684,50.8385,87.89,55,0,13.8,IR,1716213005
112,labytnangi,66.6572,66.4183,49.37,88,65,11.81,RU,1716213054
113,ola,59.5833,151.2833,46.15,71,40,3.04,RU,1716213054
114,macapa,0.0389,-51.0664,87.78,70,75,10.36,BR,1716213054
115,saipan,15.1355,145.701,84.9,79,40,12.66,MP,1716213054
116,iaciara,-14.0958,-46.6317,89.33,34,13,5.48,BR,1716213055
117,whakatane,-37.9585,176.9854,59.77,97,100,1.01,NZ,1716213055
118,dashitou,43.3067,128.5114,41.95,90,4,2.48,CN,1716213055
119,rocha,-34.4833,-54.3333,52.95,69,1,2.19,UY,1716212966
120,tchintabaraden,15.8969,5.7985,107.83,5,1,4.32,NE,1716213055
121,nizhniy kuranakh,58.8353,125.4869,42.12,91,100,3.91,RU,1716213055
122,selkirk,50.1436,-96.8845,55.47,76,100,1.99,CA,1716213056
123,shenjiamen,29.9576,122.298,66.83,96,100,5.57,CN,1716213056
124,kaoma,-14.7833,24.8,83.57,16,10,11.61,ZM,1716213056
125,alice springs,-23.7,133.8833,40.55,45,0,3.44,AU,1716213056
126,winnemucca,40.973,-117.7357,39.25,56,40,9.22,US,1716213056
127,lensk,60.7253,114.9278,40.06,60,16,12.26,RU,1716213057
128,puerto natales,-51.7236,-72.4875,37.85,81,40,3.44,CL,1716213057
129,kapa'a,22.0752,-159.319,71.92,88,0,5.75,US,1716213057
130,ilulissat,69.2167,-51.1,30.22,59,75,4.61,GL,1716213021
131,constitucion,-35.3333,-72.4167,51.37,94,100,4.12,CL,1716212947
132,lospalos,-8.5186,127.0025,72.79,91,99,9.82,TL,1716213058
133,okhotsk,59.3833,143.3,36.9,95,100,3.96,RU,1716213058
134,bethel,41.3712,-73.414,69.87,73,40,3.44,US,1716213058
135,isla vista,34.4133,-119.861,56.44,96,100,0.0,US,1716213059
136,kruisfontein,-34.0033,24.7314,69.98,50,100,8.79,ZA,1716213059
137,nemuro,43.3236,145.575,44.02,99,100,6.51,JP,1716213059
138,tazacorte,28.629,-17.9293,68.97,82,75,6.91,ES,1716213059
139,port elizabeth,-33.918,25.5701,75.49,50,0,5.75,ZA,1716213059
140,satow-oberhagen,54.0,11.8833,71.38,78,64,11.81,DE,1716213059
141,coyhaique,-45.5752,-72.0662,34.41,93,20,10.36,CL,1716212968
142,kodiak,57.79,-152.4072,35.11,93,0,4.61,US,1716213060
143,mejit,10.2753,170.8646,80.96,85,100,15.7,MH,1716213060
144,lamarque,-39.423,-65.7021,52.57,55,100,8.3,AR,1716212962
145,turan,16.0678,108.2208,80.58,89,40,2.3,VN,1716213060
146,madang,-5.2246,145.7966,80.02,90,100,6.06,PG,1716213060
147,bamboo flat,11.7,92.7167,86.09,74,20,3.44,IN,1716213061
148,vila velha,-20.3297,-40.2925,82.35,65,20,5.99,BR,1716212815
149,freeport,40.6576,-73.5832,69.33,74,100,6.91,US,1716212828
150,vernon,50.2581,-119.2691,46.92,76,6,4.61,CA,1716213061
151,luderitz,-26.6481,15.1594,76.41,38,0,4.79,NA,1716213061
152,port lincoln,-34.7333,135.8667,56.82,72,95,13.47,AU,1716213062
153,petropavlovsk-kamchatsky,53.0452,158.6483,39.45,75,20,2.24,RU,1716213062
154,antsiranana,-12.2787,49.2917,79.9,74,74,21.5,MG,1716213062
155,remire-montjoly,4.9167,-52.2667,78.84,94,75,2.3,GF,1716213062
156,poronaysk,49.2167,143.1167,41.13,77,2,5.21,RU,1716213063
157,bodaybo,57.8506,114.1933,40.62,82,96,2.86,RU,1716213063
158,port douglas,-16.4833,145.4667,71.71,78,96,10.45,AU,1716213063
159,smithers,54.7804,-127.1743,43.12,75,100,2.3,CA,1716213063
160,wailua homesteads,22.0669,-159.378,70.59,88,0,5.75,US,1716213063
161,talnakh,69.4865,88.3972,29.21,94,100,21.77,RU,1716213063
162,hamilton,39.1834,-84.5333,80.98,69,20,3.44,US,1716212918
163,grand falls-windsor,48.9332,-55.6649,59.5,56,48,3.0,CA,1716212813
164,qusmuryn,52.4503,64.6311,50.77,79,100,8.99,KZ,1716213064
165,greenville,35.6127,-77.3663,69.13,86,75,11.5,US,1716212959
166,yelizovo,53.1873,158.3805,40.8,79,20,3.0,RU,1716213065
167,archangelos,36.2149,28.1149,78.78,37,0,16.04,GR,1716213065
168,holualoa,19.6228,-155.9522,75.87,88,0,6.91,US,1716213000
169,badger,64.8,-147.5333,46.71,65,40,0.0,US,1716213065
170,veraval,20.9,70.3667,84.92,79,3,20.58,IN,1716213065
171,sao jose da coroa grande,-8.8978,-35.1478,82.76,70,17,5.84,BR,1716213066
172,key west,24.5557,-81.7826,80.6,83,75,9.22,US,1716212895
173,nainwa,25.7667,75.85,103.62,12,16,11.14,IN,1716213066
174,puerto ayora,-0.7393,-90.3518,73.54,98,58,1.99,EC,1716213066
175,prachuap khiri khan,12.2167,99.75,84.69,76,100,3.89,TH,1716213066
176,kitimat,54.0524,-128.6534,46.9,75,100,5.99,CA,1716213066
177,bar-le-duc,48.75,5.1667,71.98,64,96,4.5,FR,1716213067
178,soligalich,59.0778,42.2864,69.69,59,43,4.03,RU,1716213067
179,fort bragg,35.139,-79.006,71.82,79,100,8.05,US,1716213067
180,cill airne,52.05,-9.5167,62.65,82,20,9.22,IE,1716213067
181,kununurra,-15.7667,128.7333,73.38,25,0,12.66,AU,1716213068
182,encheng,22.1839,112.3026,72.45,96,100,5.1,CN,1716213068
183,tralee,52.2704,-9.7026,62.85,82,20,9.22,IE,1716213068
184,callao,-12.0667,-77.15,66.72,94,75,9.22,PE,1716212959
185,tazovsky,67.4667,78.7,36.55,99,100,20.85,RU,1716213068
186,mombetsu,44.3525,143.3525,43.25,81,100,4.7,JP,1716213068
187,sulphur springs,33.1385,-95.6011,77.92,78,0,3.44,US,1716213035
188,gebre guracha,9.8,38.4,70.72,44,69,2.75,ET,1716213069
189,bandundu,-3.3167,17.3667,95.97,34,75,5.57,CD,1716213069
190,bratske,47.865,31.5731,71.08,46,97,7.7,UA,1716213069
191,polyarnyy,69.1989,33.4478,34.39,61,42,24.11,RU,1716213070
192,kone,-21.0595,164.8658,64.83,83,83,2.89,NC,1716213070
193,tasqala,51.1167,50.3167,65.28,37,13,8.43,KZ,1716213070
194,koumra,8.9126,17.5539,101.16,24,60,5.12,TD,1716213070
195,keflavik,64.0049,-22.5624,48.11,61,75,21.85,IS,1716213070
196,zykovo,55.9519,93.1461,54.63,91,100,2.8,RU,1716213071
197,mont-dore,-22.2833,166.5833,75.0,99,100,3.96,NC,1716213071
198,ust-nera,64.5667,143.2,41.11,98,100,0.87,RU,1716213071
199,ribeira grande,38.5167,-28.7,68.4,77,75,9.22,PT,1716213071
200,carnarvon,-24.8667,113.6333,74.91,34,100,10.54,AU,1716213071
201,flying fish cove,-10.4217,105.6791,80.28,89,100,11.5,CX,1716213071
202,mahebourg,-20.4081,57.7,77.29,69,20,9.22,MU,1716213072
203,katsuren-haebaru,26.3369,127.8719,77.4,77,75,13.8,JP,1716213072
204,qaqortoq,60.7167,-46.0333,31.96,88,98,5.53,GL,1716213072
205,kaga bandoro,6.9896,19.1874,96.85,30,49,8.48,CF,1716213072
206,nova vicosa,-17.8919,-39.3719,82.65,54,89,6.22,BR,1716213072
207,la plata,-34.9215,-57.9545,54.82,62,40,10.33,AR,1716213073
208,nar'yan-mar,67.6713,53.087,29.48,95,100,16.42,RU,1716213073
209,arawa,-6.2132,155.5367,77.56,92,100,3.09,PG,1716213073
210,sao miguel do araguaia,-13.275,-50.1628,88.81,34,7,5.17,BR,1716213073
211,norman gardens,-23.3224,150.5393,57.18,70,16,0.0,AU,1716213073
212,ambovombe,-25.1667,46.0833,68.58,67,0,20.83,MG,1716213074
213,carutapera,-1.195,-46.02,86.47,64,45,8.5,BR,1716213074
214,paramonga,-10.6667,-77.8333,66.94,84,75,8.1,PE,1716213074
215,haradok,55.4624,29.9816,75.31,60,96,5.39,BY,1716213074
216,axim,4.8699,-2.2405,86.04,69,100,10.36,GH,1716213074
217,college,64.8569,-147.8028,46.8,63,40,0.0,US,1716213075
218,taulaga,-11.0553,-171.0883,84.58,80,13,18.16,AS,1716213075
219,broken hill,-31.95,141.4333,50.05,64,0,9.06,AU,1716212850
220,verkhnevilyuysk,63.4453,120.3167,41.02,88,100,6.87,RU,1716213075
221,port alfred,-33.5906,26.891,73.18,64,100,6.67,ZA,1716213075
222,bontang,0.1333,117.5,82.56,78,100,5.95,ID,1716213075
223,toledo,39.8333,-4.0,74.32,32,46,15.3,ES,1716212908
224,chaihe,44.7667,129.7,49.57,58,0,3.33,CN,1716213076
225,qarauyl,48.9451,79.255,63.09,48,100,15.82,KZ,1716213076
226,feicheng,35.2606,117.9675,68.74,74,34,6.93,CN,1716213076
227,punta arenas,-53.15,-70.9167,41.11,75,0,12.66,CL,1716212968
228,glendive,47.1053,-104.7125,46.76,87,0,10.36,US,1716213077
229,dobrush,52.4089,31.3237,73.56,67,96,6.73,BY,1716213077
230,kamikawa,43.84,142.7711,50.27,78,100,1.59,JP,1716213078
231,tremonton,41.7119,-112.1655,52.41,61,0,3.44,US,1716213078
232,cide,41.8921,33.0044,67.3,61,100,15.59,TR,1716213078
233,chaoyang,41.5703,120.4586,66.31,45,98,4.54,CN,1716213078
234,tofol,5.3248,163.0078,82.81,80,100,17.6,FM,1716213079
235,norrtalje,59.758,18.705,59.43,27,39,10.04,SE,1716213079
236,semnan,35.5729,53.3971,78.48,17,95,7.2,IR,1716213079
237,huadian,42.9633,126.7478,47.91,86,6,2.86,CN,1716213079
238,kerikeri,-35.2268,173.9474,59.92,95,13,4.0,NZ,1716213079
239,susuman,62.7833,148.1667,46.98,69,93,5.01,RU,1716213080
240,north bend,43.4065,-124.2243,44.85,93,0,3.44,US,1716213080
241,poyang,28.9924,116.6675,72.57,84,100,3.4,CN,1716213080
242,broome,42.2506,-75.833,73.2,77,0,4.61,US,1716213080
243,bubaque,11.2833,-15.8333,80.47,70,49,10.63,GW,1716213081
244,utrik,11.2278,169.8474,80.83,84,100,17.52,MH,1716213081
245,svetlyy,54.675,20.1347,69.85,56,77,7.52,RU,1716213081
246,aripuana,-9.1667,-60.6333,84.29,46,46,4.72,BR,1716213081
247,greymouth,-42.4667,171.2,46.13,85,100,8.43,NZ,1716213004
248,nikolayevsk-on-amure,53.1406,140.73,38.21,59,3,1.01,RU,1716213081
249,shahrud,36.4182,54.9763,69.69,28,100,12.26,IR,1716213082
250,san jose del guaviare,2.5729,-72.6459,73.09,100,100,1.54,CO,1716213068
251,tura,25.5198,90.2201,79.93,67,3,4.5,IN,1716213082
252,minas de marcona,-15.2119,-75.1103,58.55,77,52,11.79,PE,1716213083
253,sur,22.5667,59.5289,91.31,52,5,7.83,OM,1716213083
254,porto novo,6.4965,2.6036,91.22,61,50,11.5,BJ,1716213083
255,saint-francois,46.4154,3.9054,65.64,62,75,10.36,FR,1716213083
256,dehloran,32.6941,47.2679,98.13,13,30,12.12,IR,1716213083
257,holmsund,63.706,20.3641,55.35,37,0,17.27,SE,1716213084
258,vallenar,-28.5708,-70.7581,74.5,10,100,2.42,CL,1716212900
259,seme,15.1942,-12.9448,110.43,11,18,6.51,SN,1716213084
260,kargil,34.5667,76.1,49.66,27,0,8.08,IN,1716213084
261,tieling,42.2931,123.8414,57.94,56,3,5.39,CN,1716213084
262,al jabin,14.704,43.599,83.75,39,13,8.12,YE,1716213085
263,port lavaca,28.615,-96.6261,83.98,95,40,6.91,US,1716212800
264,ilam,26.9167,87.9167,71.04,83,74,6.44,NP,1716213085
265,quellon,-43.1167,-73.6167,45.93,89,100,18.88,CL,1716212844
266,navoiy,40.0844,65.3792,69.28,30,0,4.61,UZ,1716213085
267,nova sintra,14.8667,-24.7167,75.02,81,0,26.4,CV,1716213086
268,piacabucu,-10.4056,-36.4344,83.95,65,11,8.34,BR,1716213086
269,antonio enes,-16.2325,39.9086,80.29,58,34,15.46,MZ,1716213086
270,tera,14.0078,0.7531,106.7,18,100,5.3,NE,1716213087
271,tekeli,44.83,78.8239,51.85,98,100,1.86,KZ,1716213087
272,bikenibeu village,1.3673,173.1241,84.16,89,75,6.91,KI,1716213087
273,sao joao da barra,-21.6403,-41.0511,84.29,75,97,11.9,BR,1716213088
274,bor,56.3567,44.0669,71.92,47,0,9.6,RU,1716213088
275,la ronge,55.1001,-105.2842,37.65,87,100,4.61,CA,1716213088
276,aasiaat,68.7098,-52.8699,22.48,83,17,6.15,GL,1716213088
277,fale old settlement,-9.3852,-171.2468,84.09,81,76,15.99,TK,1716213088
278,vizinga,61.0749,50.1031,70.56,40,5,10.83,RU,1716213088
279,santa terezinha,-29.9002,-50.0904,58.8,83,100,16.2,BR,1716213089
280,altai,46.3722,96.2583,66.65,23,97,4.56,MN,1716213089
281,cannonvale,-20.2833,148.7,70.99,73,2,11.56,AU,1716213089
282,new norfolk,-42.7826,147.0587,46.92,97,68,2.24,AU,1716213089
283,egilsstadir,65.2653,-14.3948,49.91,66,75,1.14,IS,1716213089
284,la mira,18.035,-102.3266,83.55,62,9,0.83,MX,1716213090
285,kavieng,-2.5744,150.7967,82.89,81,92,8.34,PG,1716213090
286,san felipe,10.3399,-68.7425,85.51,55,86,5.17,VE,1716213090
287,east london,-33.0153,27.9116,72.54,60,0,4.61,ZA,1716213090
288,opuwo,-18.0607,13.84,84.65,7,0,17.94,NA,1716213091
289,vadso,70.0744,29.7487,38.28,51,40,23.02,NO,1716213091
290,pipri,19.8,75.5333,91.98,40,40,3.44,IN,1716213091
291,divino das laranjeiras,-18.7778,-41.4797,83.14,54,83,2.24,BR,1716213091
292,hilo,19.7297,-155.09,72.25,94,100,4.61,US,1716212923
293,paka,4.6374,103.4368,80.53,94,98,2.3,MY,1716213092
294,walvis bay,-22.9575,14.5053,97.75,11,0,11.5,NA,1716213092
295,cerkes,40.8116,32.8936,66.22,54,100,3.91,TR,1716213092
296,corpus christi,27.8006,-97.3964,84.18,89,40,11.5,US,1716213092
297,lebu,-37.6167,-73.65,52.02,82,0,4.32,CL,1716213092
298,alice town,25.7167,-79.3,82.98,72,9,15.68,BS,1716213093
299,kotlas,61.2611,46.6556,61.05,72,62,7.0,RU,1716213093
300,guia lopes da laguna,-21.4578,-56.1142,75.61,42,3,3.47,BR,1716213093
301,queenstown,-31.8976,26.8753,78.71,17,79,14.41,ZA,1716213003
302,chos malal,-37.3781,-70.2709,40.32,96,100,5.55,AR,1716213093
303,papao,-17.75,-149.55,74.88,76,31,25.3,PF,1716213093
304,port blair,11.6667,92.75,86.04,74,20,3.44,IN,1716213094
305,sinabang,2.4803,96.3801,77.68,92,100,4.74,ID,1716213094
306,atafu village,-8.5421,-172.5159,84.4,77,26,12.77,TK,1716213094
307,arraial do cabo,-22.9661,-42.0278,80.56,69,0,12.66,BR,1716213094
308,lamu,-2.2717,40.902,82.04,79,91,19.06,KE,1716213094
309,tiruchengode,11.3833,77.9333,76.95,86,100,5.03,IN,1716213094
310,esmeraldas,-19.7625,-44.3139,78.75,48,100,2.73,BR,1716212921
311,jayapura,-2.5333,140.7,78.19,91,100,4.45,ID,1716213095
312,rahimah,26.7079,50.0619,102.42,49,0,10.96,SA,1716213095
313,jwaneng,-24.6004,24.7303,79.81,16,0,9.01,BW,1716213095
314,pointe-du-lac,46.2869,-72.6845,71.8,74,0,9.22,CA,1716213095
315,jaguarao,-32.5661,-53.3758,53.17,77,0,3.76,BR,1716213096
316,constantia,44.1833,28.65,66.88,68,99,9.26,RO,1716213096
317,iskateley,67.6803,53.1512,29.44,95,100,16.37,RU,1716213096
318,karaton,-6.3424,106.1045,74.32,96,100,1.88,ID,1716213096
319,mccook,40.2019,-100.6257,64.45,88,75,12.66,US,1716213096
320,camocim,-2.9022,-40.8411,85.12,68,60,9.51,BR,1716213096
321,east aurora,42.7678,-78.6134,75.15,62,100,1.01,US,1716213054
322,tadine,-21.55,167.8833,71.04,68,100,10.04,NC,1716213097
323,forked river,39.8398,-74.1901,63.59,85,100,5.75,US,1716213097
324,amga,60.8953,131.9608,37.58,65,7,4.61,RU,1716213097
325,taguatinga,-12.3857,-46.5711,90.34,34,66,5.64,BR,1716213097
326,rantepao,-2.9701,119.8978,68.63,94,100,1.32,ID,1716213097
327,coquimbo,-29.9533,-71.3436,58.73,53,0,6.91,CL,1716212871
328,bang saphan,11.2126,99.5117,81.59,83,100,4.27,TH,1716213098
329,ghat,24.9647,10.1728,106.29,9,14,5.5,LY,1716213098
330,kirakira,-10.4544,161.9205,80.4,87,100,3.85,SB,1716213098
331,genthin,52.4,12.1667,63.05,69,94,3.04,DE,1716213098
332,gemena,3.25,19.7667,95.63,34,34,4.18,CD,1716213098
333,orapa,-21.2833,25.3667,82.8,19,0,13.38,BW,1716213099
334,san antonio de pale,-1.4014,5.6325,81.03,81,98,7.76,GQ,1716213099
335,clinton,42.587,-82.9199,77.11,78,40,4.61,US,1716213085
336,praia da vitoria,38.7333,-27.0667,68.76,77,40,6.42,PT,1716213099
337,cabras,39.93,8.5314,63.97,91,100,10.27,IT,1716213099
338,brisas de zicatela,15.8369,-97.0419,82.92,83,20,5.75,MX,1716213099
339,divrigi,39.371,38.1137,68.79,48,92,7.2,TR,1716213100
340,severo-yeniseyskiy,60.3725,93.0408,36.84,67,5,3.15,RU,1716213100
341,baena,37.6167,-4.3225,72.43,29,7,12.21,ES,1716213100
342,merizo village,13.2658,144.6691,83.93,89,57,17.18,GU,1716213100
343,yanbu,24.0891,38.0637,95.04,34,20,9.22,SA,1716213100
344,tagiura,32.8817,13.3506,91.27,32,100,8.95,LY,1716213101
345,belmonte,-15.8631,-38.8828,81.95,64,71,8.25,BR,1716213101
346,kastsyukovichy,53.3516,32.0506,70.9,53,100,7.16,BY,1716213101
347,pisco,-13.7,-76.2167,62.65,88,100,3.44,PE,1716213078
348,inarajan village,13.2736,144.7484,84.34,89,57,17.31,GU,1716213101
349,khandyga,62.6667,135.6,34.77,51,34,3.96,RU,1716213101
350,beaufort,5.3473,115.7455,76.78,98,100,2.91,MY,1716213102
351,margate,51.3813,1.3862,62.91,76,49,1.99,GB,1716213102
352,vegreville,53.5001,-112.0518,41.7,96,100,10.36,CA,1716213102
353,lorengau,-2.0226,147.2712,83.17,82,100,10.94,PG,1716213102
354,mount isa,-20.7333,139.5,60.57,27,56,11.5,AU,1716213102
355,benghazi,32.1167,20.0667,85.12,39,56,12.06,LY,1716213102
356,hericourt,47.5731,6.7614,76.26,63,100,7.58,FR,1716213103
357,lautoka,-17.6167,177.4667,76.86,88,20,0.0,FJ,1716213103
358,sisimiut,66.9395,-53.6735,28.71,75,63,3.42,GL,1716213103
359,hasaki,35.7333,140.8333,61.29,88,100,1.9,JP,1716213103
360,ribeira brava,32.65,-17.0667,69.12,64,64,2.73,PT,1716213103
361,kalianget,-7.05,113.9333,82.17,76,95,11.61,ID,1716213103
362,tallkayf,36.4894,43.1192,91.72,22,8,8.37,IQ,1716213104
363,sandpoint,48.2766,-116.5533,40.68,78,100,1.01,US,1716213104
364,ghanzi,-21.5667,21.7833,80.37,17,0,14.76,BW,1716213104
365,ar rutbah,33.0381,40.2848,91.62,14,100,10.87,IQ,1716213104
366,wangqing,43.3218,129.7634,44.2,89,13,1.57,CN,1716213104
367,beitbridge,-22.2167,30.0,82.6,34,0,9.82,ZW,1716213104
368,beaconsfield,45.4334,-73.8659,74.97,73,75,8.05,CA,1716213067
369,tsiombe,-25.3,45.4833,69.12,64,0,18.05,MG,1716213105
370,grand baie,-20.0182,57.5802,77.47,75,1,1.01,MU,1716213105
371,imbituba,-28.24,-48.6703,64.85,59,2,12.24,BR,1716213100
372,grants,35.1473,-107.8514,52.03,24,0,8.05,US,1716213105
373,arkhangel'sk,64.5401,40.5433,48.13,59,40,15.66,RU,1716213105
374,east wenatchee bench,47.4257,-120.2812,51.31,59,0,5.75,US,1716213106
375,pandan,14.0453,124.1694,81.9,83,82,8.66,PH,1716213106
376,sihanoukville,10.6093,103.5296,85.95,79,40,3.44,KH,1716213106
377,belyy yar,53.6039,91.3903,62.49,88,40,4.47,RU,1716213106
378,el matama,16.7095,33.3565,106.7,18,58,13.91,SD,1716213106
379,guarapari,-20.6667,-40.4975,82.89,56,2,11.01,BR,1716213106
380,vilyuysk,63.7553,121.6247,41.0,52,100,13.0,RU,1716213106
381,vilyuchinsk,52.9306,158.4028,40.93,78,7,3.4,RU,1716213107
382,forster,-32.1667,152.5167,56.28,94,89,10.89,AU,1716213107
383,puerto deseado,-47.7503,-65.8938,42.69,63,77,7.78,AR,1716213107
384,zolochiv,49.806,24.8944,71.29,59,100,8.57,UA,1716213107
385,dongola,19.1667,30.4833,112.62,5,2,11.16,SD,1716213107
386,la sierpe,2.8518,-77.6155,81.34,86,96,6.11,CO,1716213108
387,castillos,-34.1667,-53.8333,52.34,74,3,1.79,UY,1716213108
388,karratha,-20.7377,116.8463,73.94,58,1,9.66,AU,1716213108
389,kotel'nikovo,47.6317,43.1461,65.79,49,100,7.25,RU,1716213108
390,tantou,26.0314,119.5986,69.57,94,100,11.18,CN,1716213108
391,pariaman,-0.619,100.12,80.65,88,100,5.23,ID,1716213108
392,qingyuan,23.7,113.0333,73.38,96,100,3.67,CN,1716213109
393,revda,56.801,59.9303,62.42,52,47,2.33,RU,1716213109
394,ilhabela,-23.7781,-45.3581,78.06,80,15,5.73,BR,1716213109
395,ghadamis,30.1337,9.5007,105.35,10,100,23.78,LY,1716213109
396,bouna,9.2667,-3.0,100.74,30,93,9.44,CI,1716213109
397,bako,5.7833,36.5667,69.82,84,100,1.66,ET,1716213109
398,carloforte,39.145,8.3058,64.26,88,99,17.67,IT,1716213110
399,tamanrasset,22.785,5.5228,98.51,8,61,5.75,DZ,1716213110
400,spirit lake,43.4222,-95.1022,65.95,75,68,5.01,US,1716213110
401,glenwood,41.5425,-87.6023,79.48,68,0,6.91,US,1716213110
402,kozluk,38.1938,41.4885,83.19,37,16,7.43,TR,1716213110
403,verkhovyna,48.1557,24.7911,56.89,89,100,2.68,UA,1716213110
404,port hedland,-20.3167,118.5667,71.65,28,0,8.05,AU,1716212854
405,essaouira,31.5125,-9.77,72.9,46,20,25.32,MA,1716213111
406,afaahiti,-17.75,-149.2833,73.27,76,64,21.61,PF,1716213111
407,jaguarari,-10.2639,-40.1958,76.06,60,74,10.25,BR,1716213111
408,acapulco de juarez,16.8634,-99.8901,82.22,74,20,4.61,MX,1716213112
409,rawson,-43.3002,-65.1023,52.75,61,100,12.01,AR,1716213112
410,vorgashor,67.5833,63.95,38.8,100,100,7.74,RU,1716213112
411,nabire,-3.3667,135.4833,79.83,88,99,1.52,ID,1716213112
412,benjamin aceval,-24.9667,-57.5667,65.19,66,0,5.68,PY,1716213112
413,fortuna,40.5982,-124.1573,42.66,97,0,0.0,US,1716213113
414,suva,-18.1416,178.4415,76.48,100,20,3.44,FJ,1716213113
415,fortaleza,-3.7227,-38.5247,87.08,89,40,10.36,BR,1716212921
416,sol'-iletsk,51.1631,54.9918,57.0,57,100,5.08,RU,1716213113
417,paracuru,-3.41,-39.0306,86.11,79,59,7.78,BR,1716213027
418,kabo,7.6994,18.629,100.98,28,28,3.4,CF,1716213114
419,alaghsas,17.0187,8.0168,109.29,5,0,14.97,NE,1716213114
420,ha'il,27.5219,41.6907,98.62,12,0,9.22,SA,1716213114
421,el granada,37.5027,-122.4694,53.49,87,100,9.22,US,1716213114
422,nagqu,31.5,92.0,44.15,24,29,8.05,CN,1716213114
423,harstad,68.799,16.5293,38.59,96,100,18.99,NO,1716213115
424,palmer,42.1584,-72.3287,65.57,77,100,0.0,US,1716213115
425,port moresby,-9.4431,147.1797,76.42,78,40,11.5,PG,1716213115
426,kasane,-17.8167,25.15,82.24,17,0,12.46,BW,1716213115
427,mwinilunga,-11.7358,24.4293,79.03,30,47,7.0,ZM,1716213115
428,villa gesell,-37.2639,-56.973,51.06,60,14,13.04,AR,1716212997
429,talcahuano,-36.7167,-73.1167,51.48,100,100,3.44,CL,1716213116
430,kailua-kona,19.6406,-155.9956,79.59,94,0,6.91,US,1716213116
431,ibeto,10.4854,5.145,101.82,26,88,2.33,NG,1716213116
432,mar del plata,-38.0023,-57.5575,50.52,81,0,11.99,AR,1716213116
433,tileagd,47.0667,22.2,72.95,70,97,6.22,RO,1716213117
434,sucua,-2.4667,-78.1667,70.54,94,100,1.14,EC,1716213117
435,micheweni,-4.9667,39.8333,81.97,72,97,20.13,TZ,1716213117
436,pont rouge,48.8833,-72.0825,66.49,60,69,4.81,CA,1716213117
437,kocevje,45.6433,14.8633,68.58,79,100,2.64,SI,1716213117
438,amahai,-3.3333,128.9167,86.2,90,75,7.65,ID,1716213118
439,kristiansund,63.1115,7.732,60.85,47,0,9.22,NO,1716213118
440,pine hill,39.7843,-74.9921,69.12,75,0,3.09,US,1716213060
441,marsassoum,12.8275,-15.9806,95.09,13,71,7.7,SN,1716213118
442,pori,61.4833,21.7833,55.47,28,0,16.11,FI,1716213118
443,bandarbeyla,9.4942,50.8122,85.41,78,100,20.69,SO,1716213118
444,ikryanoye,46.0932,47.7308,73.38,32,7,4.83,RU,1716213119
445,bettiah,26.8,84.5,98.02,29,39,10.49,IN,1716213119
446,kimbe,-5.5502,150.1429,77.38,89,36,5.55,PG,1716213119
447,coaticook,45.1334,-71.7991,68.29,64,64,4.12,CA,1716213119
448,leava,-14.3,-178.1667,83.73,81,33,9.46,WF,1716213119
449,klyuchi,52.2667,79.1667,65.73,50,73,8.88,RU,1716213120
450,nayoro,44.3506,142.4578,46.76,68,100,4.9,JP,1716213120
451,tahe,52.3333,124.7333,50.52,54,100,5.3,CN,1716213120
452,basco,20.4487,121.9702,82.94,80,100,9.26,PH,1716213120
453,casper,42.8666,-106.3131,46.72,49,100,11.5,US,1716213120
454,freetown,8.484,-13.2299,85.71,79,75,9.22,SL,1716213120
455,wewak,-3.5534,143.6268,80.82,86,100,5.95,PG,1716213121
456,turpan,42.9333,89.1667,101.55,14,97,15.43,CN,1716213121
457,oranjemund,-28.55,16.4333,66.06,57,6,7.76,NA,1716213121
458,mamuju,-2.6748,118.8885,79.43,89,64,3.27,ID,1716213122
459,vorzel',50.5444,30.153,77.27,44,8,11.21,UA,1716213122
460,ballina,-28.8667,153.5667,49.78,84,27,10.92,AU,1716213122
461,al mijlad,11.0333,27.7333,104.25,17,8,6.24,SD,1716213122
462,san pedro pochutla,15.7333,-96.4667,87.53,63,16,1.28,MX,1716213122
463,richards bay,-28.783,32.0377,80.8,55,19,13.58,ZA,1716212830
464,waiuku,-37.25,174.75,63.25,95,100,6.55,NZ,1716213123
465,murzuq,25.9155,13.9184,107.37,6,18,5.19,LY,1716213123
466,taltal,-25.4,-70.4833,65.43,62,0,4.72,CL,1716212903
467,laguna,38.421,-121.4238,60.15,81,0,4.61,US,1716213124
468,villa el carmen,11.9801,-86.5057,83.57,57,12,14.81,NI,1716213124
469,namibe,-15.1961,12.1522,86.65,39,2,10.54,AO,1716213124
470,nuuk,64.1835,-51.7216,32.61,74,75,5.75,GL,1716213125
471,yavuzeli,37.3177,37.5682,87.37,30,43,12.15,TR,1716213125
472,zhongshan,21.3226,110.5829,77.68,93,93,10.45,CN,1716213125
473,valparaiso,-33.0393,-71.6273,59.0,61,75,4.61,CL,1716213105
474,samrala,30.8367,76.1897,102.92,11,45,13.53,IN,1716213126
475,east ballina,-28.8667,153.5833,49.8,84,27,10.92,AU,1716213126
476,al hazm,16.1641,44.7769,94.69,8,0,14.38,YE,1716213126
477,onega,63.9061,38.1404,46.71,48,1,9.22,RU,1716213126
478,kuruman,-27.4524,23.4325,77.0,19,3,7.67,ZA,1716213127
479,kainantu,-6.2887,145.8655,62.74,99,100,1.92,PG,1716213127
480,sao geraldo do araguaia,-6.4006,-48.555,86.02,70,1,5.35,BR,1716213124
481,abadan,30.3392,48.3043,103.95,15,0,13.8,IR,1716213127
482,roosevelt,33.9668,-103.4505,69.67,17,2,10.07,US,1716213128
483,nurota,40.5614,65.6886,67.55,33,13,10.25,UZ,1716213128
484,tangalle,6.024,80.7911,77.16,89,100,11.7,LK,1716213128
485,itoman,26.1247,127.6694,77.4,83,75,13.8,JP,1716213128
486,safford,32.834,-109.7076,75.11,22,0,3.44,US,1716213129
487,zhalantun,48.0,122.7167,60.44,48,100,8.52,CN,1716213129
488,kalinkavichy,52.1323,29.3257,68.07,62,100,6.93,BY,1716213129
489,trashi yangtse,27.6116,91.498,62.44,94,99,2.37,BT,1716213129
490,geraldton,-28.7667,114.6,61.21,44,100,8.05,AU,1716212852
491,bahir dar,11.5936,37.3908,74.17,58,100,3.09,ET,1716213130
492,sydney,-33.8679,151.2073,60.71,76,100,20.71,AU,1716213130
493,denov,38.2667,67.9,73.8,54,1,5.46,UZ,1716213130
494,aioun,16.6614,-9.6149,109.27,10,3,9.91,MR,1716213131
495,saynshand,44.8824,110.1163,73.6,16,4,6.76,MN,1716213131
496,dayr mawas,27.6418,30.8466,108.5,8,2,13.73,EG,1716213131
497,grenaa,56.4158,10.8783,73.62,71,0,8.3,DK,1716213132
498,mankapur,27.0333,82.2333,94.17,36,0,16.42,IN,1716213132
499,touros,-5.1989,-35.4608,86.68,64,40,12.5,BR,1716213132
500,rosa zarate,0.3333,-79.4667,77.97,91,98,2.73,EC,1716213132
501,mogocha,53.7333,119.7667,55.89,38,100,1.86,RU,1716213133
502,kursk,51.7303,36.1939,73.6,53,0,11.18,RU,1716213133
503,lompoc,34.6391,-120.4579,54.01,79,0,11.5,US,1716213133
504,chinhoyi,-17.3667,30.2,81.93,17,0,7.83,ZW,1716213133
505,acarau,-2.8856,-40.12,84.42,70,29,11.23,BR,1716213025
506,alofi,-19.0595,-169.9187,75.09,94,75,3.44,NU,1716213134
507,uglegorsk,49.0833,142.0333,49.59,51,17,6.33,RU,1716213134
508,la'ie,21.6477,-157.9253,73.36,90,20,10.76,US,1716213134
509,akrehamn,59.2667,5.1833,62.85,59,0,5.75,NO,1716213135
510,thabazimbi,-24.5917,27.4116,81.86,16,0,4.59,ZA,1716213135
511,sao joao do piaui,-8.3581,-42.2467,92.64,35,2,6.87,BR,1716213135
512,ifon,6.9241,5.776,96.15,42,100,4.52,NG,1716213135
513,ponta delgada,37.7333,-25.6667,65.19,94,75,13.8,PT,1716213136
514,whistler,50.1164,-122.9695,40.55,100,75,0.0,CA,1716213136
515,szczawnica,49.4244,20.4849,68.88,84,100,5.55,PL,1716213136
516,tortoli,39.9256,9.6572,69.62,94,40,19.57,IT,1716213136
517,'ain benian,36.8028,2.9219,73.45,76,0,20.47,DZ,1716213137
518,ulsteinvik,62.3432,5.8487,65.3,65,83,8.34,NO,1716213137
519,jeddah,21.5169,39.2192,96.66,32,0,11.5,SA,1716213137
520,islamorada,24.9243,-80.6278,75.2,68,0,12.01,US,1716212847
521,yunak,38.8142,31.7322,72.12,40,100,4.38,TR,1716213138
522,plymouth,41.8334,-70.8328,60.98,90,100,11.5,US,1716213138
523,uturoa,-16.7333,-151.4333,79.45,73,77,23.44,PF,1716213138
524,wanxian,30.8039,108.3897,72.79,76,100,4.47,CN,1716213139
525,gejiu,23.306,103.1635,56.7,77,5,4.12,CN,1716213139
526,kargasok,59.0556,80.8572,51.96,35,100,7.0,RU,1716213140
527,new plymouth,-39.0667,174.0833,57.81,88,100,15.79,NZ,1716212966
528,nizhneangarsk,55.7833,109.55,40.01,88,68,4.0,RU,1716213140
529,pelabuhanratu,-6.9875,106.5514,79.68,87,98,4.74,ID,1716213140
530,iskushuban,10.2837,50.23,100.33,20,100,12.55,SO,1716213141
531,ternate,0.8,127.4,82.49,80,33,3.91,ID,1716213141
532,camana,-16.6228,-72.7111,66.96,80,47,8.46,PE,1716213141
533,stung treng,13.5259,105.9683,77.11,84,99,3.06,KH,1716213141
534,kutahya,39.4242,29.9833,72.75,49,89,8.23,TR,1716213142
535,bien hoa,10.95,106.8167,82.38,71,100,8.57,VN,1716213142
536,ibotirama,-12.1853,-43.2206,91.63,27,0,4.94,BR,1716213143
537,puerto baquerizo moreno,-0.9,-89.6,73.56,87,59,9.26,EC,1716213007
538,nuku'alofa,-21.1333,-175.2,79.14,94,75,6.91,TO,1716213144
539,ilha de mocambique,-15.0342,40.7358,80.92,65,2,22.75,MZ,1716213144
540,lyskovo,56.0328,45.0422,66.49,57,6,7.52,RU,1716213144
541,seaside,36.6111,-121.8516,53.17,83,100,6.91,US,1716212902
542,mossel bay,-34.1831,22.146,67.93,67,49,9.06,ZA,1716213144
543,pacific grove,36.6177,-121.9166,52.68,83,100,6.91,US,1716213145
544,dan gora,11.5349,8.1522,103.69,12,84,3.24,NG,1716213145
545,ouesso,1.6136,16.0517,95.36,40,85,2.57,CG,1716213145
546,yekaterinoslavka,50.3734,129.1139,52.2,73,89,5.26,RU,1716213146
547,teshi old town,5.5836,-0.1072,90.16,70,20,13.8,GH,1716213146
548,hinton,53.4001,-117.5857,43.61,83,98,5.68,CA,1716213146
549,ippy,6.2679,21.2247,96.13,30,46,9.84,CF,1716213146
550,sola,-13.8833,167.55,81.3,81,99,2.75,VU,1716213147
551,cole harbour,44.6724,-63.4751,51.19,94,72,8.05,CA,1716213147
552,byron bay,-28.65,153.6167,49.71,81,36,11.1,AU,1716213134
553,guerrero negro,27.9769,-114.0611,61.09,84,100,20.09,MX,1716213148
554,ensenada,31.8667,-116.6167,59.95,72,92,8.37,MX,1716213148
555,panuco,22.05,-98.1667,85.87,71,0,2.42,MX,1716213148
556,abong mbang,3.9833,13.1833,93.94,33,46,4.07,CM,1716213148
557,ogoja,6.6547,8.7976,92.91,52,99,7.7,NG,1716213149
558,bardai,11.65,7.2333,101.26,14,10,5.03,NG,1716213149
559,mathba,22.2855,89.9629,86.72,69,53,9.01,BD,1716213149
560,copala,16.65,-98.9833,85.44,65,26,1.36,MX,1716213150
561,tchaourou,8.8865,2.5975,100.56,30,90,6.38,BJ,1716213150
562,spring creek,40.7266,-115.5859,40.3,56,32,1.01,US,1716213150
563,kingston,17.997,-76.7936,85.15,74,20,4.61,JM,1716212951
564,salinopolis,-0.6136,-47.3561,84.63,73,85,11.23,BR,1716213133
565,isla del bosque,22.7333,-105.85,75.58,67,97,3.91,MX,1716213152
566,al jawf,29.5,38.75,95.81,11,62,17.2,SA,1716213152
567,heishan,41.6892,122.1128,63.18,41,92,4.38,CN,1716213153
568,sitka,57.0531,-135.33,42.69,81,100,6.91,US,1716213153
569,berdigestyakh,62.0989,126.6992,40.42,65,100,8.23,RU,1716213153
570,san carlos del zulia,9.0,-71.9135,86.43,67,94,4.63,VE,1716213153
571,nogliki,51.8333,143.1667,38.34,82,0,5.99,RU,1716213153
572,san julian,21.0167,-102.1667,71.28,41,0,3.62,MX,1716213154
573,namtsy,62.7161,129.6658,39.31,53,59,10.13,RU,1716213154
574,santa elena de uairen,4.6167,-61.1333,77.47,61,55,8.72,VE,1716213154
575,san antonio,29.4241,-98.4936,78.96,87,100,10.36,US,1716213139
576,lukolela,-1.0605,17.1821,87.82,53,97,2.15,CD,1716213155
577,bakaly,55.1789,53.8028,64.33,52,5,3.83,RU,1716213155
578,alegrete,-29.7831,-55.7919,55.89,76,0,7.05,BR,1716213156
579,tra vinh,9.9347,106.3453,84.54,75,98,6.69,VN,1716213156
580,howrah,22.5892,88.3103,80.6,89,40,6.91,IN,1716213156
581,canutama,-6.5339,-64.3831,83.86,69,74,4.34,BR,1716213156
582,kalemie,-5.9475,29.1947,79.86,63,7,8.41,CD,1716213157
583,pechora,65.1472,57.2244,46.85,100,100,7.0,RU,1716213157
