City_ID,City,Lat,Lng,Max Temp,Humidity,Cloudiness,Wind Speed,Country,Date
0,ariquemes,-9.9133,-63.0408,76.77,95,99,3.27,BR,1707606852
1,chonchi,-42.6128,-73.8092,62.31,69,11,1.1,CL,1707606852
2,wailua homesteads,22.0669,-159.378,79.23,78,40,6.91,US,1707606852
3,forster,-32.1667,152.5167,74.37,79,88,12.21,AU,1707606853
4,merizo village,13.2658,144.6691,82.96,79,99,18.68,GU,1707606853
5,talnakh,69.4865,88.3972,-17.93,87,97,3.24,RU,1707606853
6,zapolyarnyy,69.4154,30.8136,-2.92,88,100,6.24,RU,1707606854
7,georgetown,5.4112,100.3354,80.53,65,20,6.91,MY,1707606854
8,santa vitoria do palmar,-33.5189,-53.3681,73.89,96,100,15.41,BR,1707606572
9,victorica,-36.2151,-65.4359,82.47,49,6,5.03,AR,1707606855
10,lerwick,60.1545,-1.1494,37.4,97,100,28.99,GB,1707606855
11,port-aux-francais,-49.35,70.2167,46.87,99,100,23.04,TF,1707606855
12,alexandria,31.2156,29.9553,57.61,76,2,5.5,EG,1707606592
13,grytviken,-54.2811,-36.5092,37.18,94,100,21.12,GS,1707606856
14,luderitz,-26.6481,15.1594,63.54,83,39,28.54,NA,1707606856
15,longyearbyen,78.2186,15.6401,24.64,68,75,6.91,SJ,1707606856
16,mili,6.0815,171.735,81.93,80,100,22.35,MH,1707606856
17,hithadhoo,-0.6,73.0833,82.63,73,39,8.68,MV,1707606857
18,ushuaia,-54.8,-68.3,53.26,76,0,17.27,AR,1707606857
19,yamada,39.4667,141.95,33.35,62,65,5.39,JP,1707606857
20,nemuro,43.3236,145.575,27.25,91,100,14.54,JP,1707606857
21,papatowai,-46.5619,169.4708,51.85,67,99,6.24,NZ,1707606857
22,bad windsheim,49.5,10.4167,46.26,97,0,0.0,DE,1707606858
23,tabou,4.423,-7.3528,80.19,88,12,5.19,CI,1707606858
24,olonkinbyen,70.9221,-8.7187,26.02,65,80,11.41,SJ,1707606858
25,idri,27.5,13.2667,61.05,15,100,7.09,LY,1707606858
26,waitangi,-43.9535,-176.5597,66.81,89,86,5.01,NZ,1707606858
27,pontes e lacerda,-15.2261,-59.3353,79.56,79,92,2.71,BR,1707606859
28,khagrachhari,23.1,91.9667,51.8,78,6,1.92,BD,1707606859
29,dudinka,69.4058,86.1778,-17.32,88,100,7.0,RU,1707606859
30,adamstown,-25.066,-130.1015,77.34,90,100,27.18,PN,1707606859
31,edinburgh of the seven seas,-37.0676,-12.3116,65.64,91,100,17.85,SH,1707606860
32,aioun,16.6614,-9.6149,78.13,6,0,9.24,MR,1707606860
33,carapelle,41.3652,15.6938,57.18,72,40,11.5,IT,1707606860
34,whittlesea,-32.1759,26.8244,55.2,81,50,3.85,ZA,1707606861
35,hasaki,35.7333,140.8333,41.29,46,75,13.53,JP,1707606861
36,novofedorivka,46.1713,32.3178,43.75,96,100,10.29,UA,1707606861
37,vorgashor,67.5833,63.95,-15.47,98,100,5.68,RU,1707606861
38,ust-nera,64.5667,143.2,-32.57,100,100,2.57,RU,1707606861
39,bethel,41.3712,-73.414,57.29,68,75,9.22,US,1707606862
40,machico,32.7,-16.7667,69.71,88,20,0.0,PT,1707606862
41,puerto ayora,-0.7393,-90.3518,80.55,91,71,8.99,EC,1707606862
42,goure,13.9835,10.2704,68.47,11,0,6.91,NE,1707606862
43,iqaluit,63.7506,-68.5145,-11.47,64,75,2.3,CA,1707606862
44,college,64.8569,-147.8028,19.72,85,20,0.0,US,1707606863
45,covington,39.0837,-84.5086,54.72,74,100,14.0,US,1707606863
46,ta`u,-14.2336,-169.5144,84.06,79,100,13.89,AS,1707606863
47,labrador city,52.9463,-66.9114,28.18,99,100,6.24,CA,1707606681
48,kalmunai,7.4167,81.8167,78.08,69,100,8.97,LK,1707606863
49,robore,-18.3333,-59.75,82.22,69,100,4.9,BO,1707606864
50,tsiombe,-25.3,45.4833,77.25,90,57,3.94,MG,1707606864
51,invercargill,-46.4,168.35,53.02,85,100,8.01,NZ,1707606864
52,punta arenas,-53.15,-70.9167,62.71,45,0,14.97,CL,1707606864
53,tiksi,71.6872,128.8694,-15.65,100,100,5.73,RU,1707606864
54,hermanus,-34.4187,19.2345,60.8,73,1,12.19,ZA,1707606865
55,fale old settlement,-9.3852,-171.2468,82.4,85,100,16.42,TK,1707606865
56,flying fish cove,-10.4217,105.6791,74.88,100,40,0.0,CX,1707606599
57,codrington,-38.2667,141.9667,71.87,49,0,3.78,AU,1707606865
58,avarua,-21.2078,-159.775,84.25,70,40,18.41,CK,1707606866
59,hamilton,39.1834,-84.5333,54.23,73,100,14.0,US,1707606853
60,argostolion,38.1811,20.489,58.75,60,100,36.71,GR,1707606866
61,yellowknife,62.456,-114.3525,8.42,97,75,21.85,CA,1707606866
62,mossel bay,-34.1831,22.146,65.68,69,55,8.39,ZA,1707606866
63,susuman,62.7833,148.1667,-27.02,100,100,1.99,RU,1707606866
64,norilsk,69.3535,88.2027,-12.03,84,96,2.86,RU,1707606867
65,walvis bay,-22.9575,14.5053,61.75,88,10,6.91,NA,1707606867
66,tura,25.5198,90.2201,56.28,55,0,3.42,IN,1707606867
67,sorong,-0.8833,131.25,82.11,81,100,9.91,ID,1707606867
68,sombrerete,23.6333,-103.65,57.69,37,99,28.25,MX,1707606867
69,san patricio,28.017,-97.5169,73.26,78,100,8.28,US,1707606868
70,port lincoln,-34.7333,135.8667,67.87,68,33,7.92,AU,1707606868
71,mugia,43.1041,-9.2179,50.92,64,95,15.5,ES,1707606868
72,mabaruma,8.2,-59.7833,78.13,75,37,5.48,GY,1707606868
73,novodvinsk,64.4165,40.8122,-2.22,99,79,2.77,RU,1707606868
74,bredasdorp,-34.5322,20.0403,63.5,73,54,6.51,ZA,1707606869
75,nikolayevsk-on-amure,53.1406,140.73,-6.88,99,85,1.68,RU,1707606869
76,tutoia,-2.7619,-42.2744,78.85,87,98,9.84,BR,1707606678
77,isafjordur,66.0755,-23.124,23.56,80,44,7.56,IS,1707606869
78,port elizabeth,-33.918,25.5701,53.89,87,0,4.61,ZA,1707606869
79,birao,10.2849,22.7882,75.79,20,4,5.03,CF,1707606870
80,atafu village,-8.5421,-172.5159,81.88,85,97,19.84,TK,1707606870
81,keffi,8.8486,7.8736,82.63,21,44,3.83,NG,1707606870
82,anka,12.1138,5.9243,79.23,14,13,8.43,NG,1707606870
83,lihue,21.9789,-159.3672,79.84,78,40,6.91,US,1707606870
84,thompson,55.7435,-97.8558,6.96,85,40,2.3,CA,1707606871
85,puerto natales,-51.7236,-72.4875,57.09,74,100,5.26,CL,1707606871
86,richards bay,-28.783,32.0377,71.56,74,100,10.42,ZA,1707606871
87,guerrero negro,27.9769,-114.0611,61.48,55,37,19.57,MX,1707606871
88,morococha,-11.5997,-76.1411,43.5,71,96,1.34,PE,1707606872
89,dauphin,51.1494,-100.0502,19.54,73,100,11.5,CA,1707606872
90,whitehorse,60.7161,-135.0538,37.02,61,20,17.27,CA,1707606873
91,old town,50.087,14.4202,45.93,95,0,8.05,CZ,1707606873
92,caibarien,22.5206,-79.4669,74.52,75,0,25.21,CU,1707606873
93,al burayqah,30.4062,19.5739,66.07,34,100,19.01,LY,1707606874
94,urzhar,47.093,81.6294,25.21,82,87,3.76,KZ,1707606874
95,belyy yar,53.6039,91.3903,31.89,80,0,6.71,RU,1707606874
96,cadale,2.7603,46.3222,76.59,82,36,14.16,SO,1707606874
97,benguela,-12.5763,13.4055,81.59,77,100,8.59,AO,1707606874
98,ghormach,35.7306,63.7826,52.77,25,90,2.86,AF,1707606875
99,papao,-17.75,-149.55,78.48,88,100,33.51,PF,1707606875
100,al bawiti,28.3492,28.8659,54.14,45,0,4.05,EG,1707606875
101,fort mcmurray,56.7268,-111.381,24.39,80,100,9.22,CA,1707606875
102,margaret river,-33.95,115.0667,65.46,88,48,12.46,AU,1707606876
103,eraan,9.0629,117.7016,77.61,85,44,9.35,PH,1707606876
104,uturoa,-16.7333,-151.4333,82.13,89,100,32.91,PF,1707606876
105,nogliki,51.8333,143.1667,-9.65,100,93,5.01,RU,1707606876
106,tvoroyri,61.5556,-6.8111,39.74,70,100,29.84,FO,1707606877
107,al manshah,26.4769,31.8035,55.02,41,0,6.06,EG,1707606877
108,ribeira grande,38.5167,-28.7,63.77,94,100,15.01,PT,1707606877
109,imishli,39.8709,48.06,43.65,51,0,5.46,AZ,1707606878
110,sretensk,52.2453,117.7093,-11.65,100,77,1.95,RU,1707606878
111,nuuk,64.1835,-51.7216,9.21,66,100,13.8,GL,1707606878
112,albany,42.6001,-73.9662,50.92,81,95,1.01,US,1707606879
113,srivardhan,18.0333,73.0167,70.11,55,0,6.02,IN,1707606879
114,praia da vitoria,38.7333,-27.0667,64.65,82,40,20.2,PT,1707606879
115,alofi,-19.0595,-169.9187,85.89,74,96,14.97,NU,1707606879
116,new norfolk,-42.7826,147.0587,66.7,52,98,2.39,AU,1707606879
117,orange,33.7,-117.7675,67.44,35,20,9.22,US,1707606699
118,tolanaro,-25.0319,46.9987,74.8,96,27,3.49,MG,1707606880
119,challapata,-18.9,-66.7667,51.84,69,89,12.77,BO,1707606677
120,garachico,28.7781,-17.7646,63.48,82,0,2.3,ES,1707606880
121,tofol,5.3248,163.0078,81.81,81,87,19.98,FM,1707606880
122,meadow lakes,61.6247,-149.6011,40.98,66,40,8.05,US,1707606880
123,nueva imperial,-38.7333,-72.95,63.25,67,35,9.28,CL,1707606881
124,port mathurin,-19.6833,63.4167,80.67,82,100,23.78,MU,1707606881
125,wenchang,30.904,118.4887,42.3,87,0,3.09,CN,1707606881
126,palmer,42.1584,-72.3287,54.01,65,100,3.44,US,1707606751
127,stanley,54.868,-1.6985,41.29,93,100,3.44,GB,1707606881
128,nova vicosa,-17.8919,-39.3719,74.05,89,15,3.22,BR,1707606882
129,barinitas,8.7622,-70.4111,77.07,98,96,2.19,VE,1707606882
130,athens,37.9795,23.7162,62.11,75,100,11.99,GR,1707606879
131,merowe,18.4833,31.8167,61.95,20,0,10.22,SD,1707606883
132,knyaze-volkonskoye,48.4642,135.4567,3.54,99,96,4.99,RU,1707606883
133,oodweyne,9.4092,45.064,69.01,79,17,6.98,SO,1707606883
134,chulym,55.0997,80.9572,1.35,92,100,15.68,RU,1707606883
135,valparaiso,-33.0393,-71.6273,71.01,58,0,13.8,CL,1707606808
136,crane,31.3974,-102.3501,66.54,19,12,3.24,US,1707606883
137,ndelele,4.0333,14.9333,77.68,27,16,2.48,CM,1707606884
138,glace bay,46.1969,-59.957,36.27,90,75,11.5,CA,1707606884
139,ganshui,28.7422,106.7111,46.78,71,0,3.71,CN,1707606884
140,upwey,-37.9,145.3333,79.39,50,0,3.0,AU,1707606884
141,kovdor,67.5662,30.4758,6.13,96,100,2.8,RU,1707606885
142,anadyr,64.75,177.4833,-7.01,76,20,13.42,RU,1707606885
143,saint-pierre,-21.3393,55.4781,76.68,78,0,6.91,RE,1707606885
144,jamestown,42.097,-79.2353,41.02,78,0,10.36,US,1707606856
145,vicosa,-20.7539,-42.8819,67.59,96,44,4.83,BR,1707606716
146,auna,10.1881,4.7232,81.99,18,88,3.2,NG,1707606886
147,aasiaat,68.7098,-52.8699,-5.1,97,100,7.05,GL,1707606886
148,dikwa,12.024,13.9165,75.22,21,4,8.25,NG,1707606886
149,saipan,15.1355,145.701,81.3,78,75,18.41,MP,1707606886
150,huarmey,-10.0681,-78.1522,76.73,83,83,9.8,PE,1707606887
151,fortuna,40.5982,-124.1573,57.97,81,0,9.22,US,1707606655
152,dindima,10.2263,10.1513,72.07,20,78,3.2,NG,1707606887
153,carnarvon,-24.8667,113.6333,82.31,50,0,13.87,AU,1707606887
154,mutuali,-14.8706,37.0044,71.37,88,100,1.81,MZ,1707606887
155,malvan,16.0667,73.4667,73.15,54,35,8.79,IN,1707606888
156,souillac,-20.5167,57.5167,79.18,89,75,6.91,MU,1707606888
157,krasnyy yar,46.5331,48.3456,31.96,87,100,11.99,RU,1707606888
158,geraldton,-28.7667,114.6,64.81,94,0,3.44,AU,1707606888
159,pisco,-13.7,-76.2167,80.65,69,0,24.16,PE,1707606888
160,capao bonito,-24.0058,-48.3494,71.55,93,47,8.46,BR,1707606889
161,port blair,11.6667,92.75,77.74,80,83,8.84,IN,1707606765
162,sarila,25.7667,79.6833,52.12,49,0,5.12,IN,1707606889
163,taperoa,-7.2075,-36.8267,76.44,77,96,16.51,BR,1707606889
164,nar'yan-mar,67.6713,53.087,-16.89,100,45,7.0,RU,1707606889
165,tank,32.2217,70.3793,54.84,25,29,1.5,PK,1707606890
166,ulsteinvik,62.3432,5.8487,28.53,63,99,7.0,NO,1707606890
167,antsiranana,-12.2787,49.2917,76.6,91,100,7.43,MG,1707606890
168,quirinopolis,-18.4483,-50.4517,80.78,64,74,5.26,BR,1707606890
169,alaghsas,17.0187,8.0168,69.22,10,0,8.88,NE,1707606890
170,badagry,6.4167,2.8833,78.94,92,90,8.55,NG,1707606891
171,tazovsky,67.4667,78.7,-5.24,97,98,10.2,RU,1707606679
172,bilibino,68.0546,166.4372,-28.89,100,99,0.72,RU,1707606891
173,west island,-12.1568,96.8225,82.38,78,100,11.5,CC,1707606891
174,roma,43.2128,-75.4557,48.96,77,100,10.36,US,1707606892
175,kolonia town,6.964,158.206,86.11,70,100,17.27,FM,1707606892
176,colonia,50.9333,6.95,49.96,88,100,3.13,DE,1707606892
177,uniao,-4.5858,-42.8642,74.3,99,99,2.95,BR,1707606732
178,castillos,-34.1667,-53.8333,73.29,97,100,11.88,UY,1707606892
179,nouadhibou,20.931,-17.0347,67.55,88,28,19.13,MR,1707606892
180,ilulissat,69.2167,-51.1,6.82,47,100,11.5,GL,1707606893
181,acarau,-2.8856,-40.12,82.8,76,100,17.43,BR,1707606893
182,blackmans bay,-43.0167,147.3167,65.52,59,97,2.62,AU,1707606893
183,qaisumah,28.3112,46.1273,57.16,88,75,12.66,SA,1707606893
184,puerto deseado,-47.7503,-65.8938,65.16,59,96,22.86,AR,1707606893
185,keflavik,64.0049,-22.5624,33.71,80,75,20.71,IS,1707606894
186,kwolla,8.9333,9.2833,80.49,19,44,5.26,NG,1707606894
187,klyuchi,52.2667,79.1667,14.43,74,86,13.29,RU,1707606894
188,porto novo,6.4965,2.6036,84.02,88,86,7.2,BJ,1707606894
189,ati,13.2154,18.3353,72.75,10,1,9.46,TD,1707606894
190,ozolnieki,56.6864,23.7878,27.01,94,100,8.16,LV,1707606895
191,sao joao da barra,-21.6403,-41.0511,77.09,84,10,14.05,BR,1707606895
192,severo-yeniseyskiy,60.3725,93.0408,6.58,93,100,7.0,RU,1707606895
193,nabire,-3.3667,135.4833,81.16,79,47,1.88,ID,1707606895
194,negombo,7.2083,79.8358,75.25,88,23,5.75,LK,1707606895
195,holualoa,19.6228,-155.9522,76.84,69,40,10.36,US,1707606896
196,mount pearl,47.5166,-52.7813,25.84,91,22,5.91,CA,1707606820
197,ashland,40.8167,-82.2665,47.98,91,100,9.28,US,1707606896
198,neryungri,56.6709,124.6491,-21.15,98,87,4.68,RU,1707606896
199,kodiak,57.79,-152.4072,38.71,70,0,12.66,US,1707606897
200,borogontsy,62.6683,131.1683,-42.54,99,66,5.32,RU,1707606897
201,eastham,41.8301,-69.9739,46.94,78,0,10.36,US,1707606897
202,hami,42.8,93.45,31.42,51,19,4.23,CN,1707606898
203,vila franca do campo,37.7167,-25.4333,64.89,99,100,17.74,PT,1707606898
204,tahe,52.3333,124.7333,-10.23,100,45,3.27,CN,1707606898
205,mafra,-26.1114,-49.8053,73.26,82,7,6.87,BR,1707606898
206,utrik,11.2278,169.8474,79.07,72,98,21.74,MH,1707606899
207,cockburn town,21.4612,-71.1419,75.69,63,76,20.2,TC,1707606735
208,sitka,57.0531,-135.33,44.49,70,100,13.8,US,1707606899
209,reggane,26.7158,0.1714,76.24,45,98,10.94,DZ,1707606899
210,udachny,66.4167,112.4,-40.56,64,87,3.91,RU,1707606899
211,dryden,49.7833,-92.7503,17.89,86,100,8.05,CA,1707606900
212,naldurg,17.8167,76.3,75.27,50,50,9.22,IN,1707606900
213,quba,41.3626,48.5152,46.78,43,0,4.29,AZ,1707606900
214,iskateley,67.6803,53.1512,-16.98,100,48,7.0,RU,1707606900
215,dikhil,11.5,42.1667,71.37,76,32,9.37,DJ,1707606900
216,kuta,-8.7233,115.1723,80.55,88,20,7.0,ID,1707606901
217,rongelap,11.1635,166.8941,79.32,77,100,20.85,MH,1707606901
218,shiyan,32.6475,110.7781,40.68,49,0,1.43,CN,1707606901
219,sima,53.9202,102.0442,14.13,94,100,1.57,RU,1707606901
220,bikenibeu village,1.3673,173.1241,80.94,79,100,8.81,KI,1707606902
221,st. john's,47.5649,-52.7093,26.67,93,75,6.91,CA,1707606902
222,antofagasta,-23.65,-70.4,74.48,81,70,10.2,CL,1707606902
223,san ignacio de velasco,-16.3667,-60.95,83.75,60,99,3.96,BO,1707606902
224,khovd,48.0056,91.6419,17.76,63,100,8.34,MN,1707606903
225,ghanzi,-21.5667,21.7833,74.98,52,39,6.06,BW,1707606903
226,nova sintra,14.8667,-24.7167,69.53,70,0,16.89,CV,1707606903
227,afaahiti,-17.75,-149.2833,76.87,88,100,32.12,PF,1707606904
228,san antonio de pale,-1.4014,5.6325,84.25,71,51,3.02,GQ,1707606904
229,lazaro cardenas,17.9583,-102.2,80.06,63,22,9.73,MX,1707606793
230,lompoc,34.6391,-120.4579,62.74,57,0,13.8,US,1707606904
231,tocopilla,-22.092,-70.1979,75.18,73,70,11.5,CL,1707606904
232,polyarnyy,69.1989,33.4478,12.97,95,100,4.76,RU,1707606905
233,ancud,-41.8697,-73.8203,55.94,88,31,24.45,CL,1707606905
234,sheboygan falls,43.732,-87.8221,35.76,66,5,3.0,US,1707606905
235,san juan,-31.5375,-68.5364,89.82,37,31,14.72,AR,1707606682
236,hawaiian paradise park,19.5933,-154.9731,78.31,71,100,6.91,US,1707606906
237,gedo,9.0167,37.45,57.65,74,96,1.83,ET,1707606906
238,ytrebygda,60.305,5.2824,32.32,80,75,2.3,NO,1707606906
239,kangding,30.0513,101.9603,35.85,41,0,4.29,CN,1707606907
240,mahalapye,-23.1041,26.8142,80.08,44,58,9.06,BW,1707606907
241,coquimbo,-29.9533,-71.3436,64.13,88,75,8.05,CL,1707606908
242,brokopondo,4.75,-55.1667,84.69,62,42,8.01,SR,1707606908
243,kuybyshev,55.4475,78.3218,-2.09,95,100,14.14,RU,1707606908
244,kismayo,-0.3582,42.5454,79.84,85,100,13.56,SO,1707606909
245,san andres,12.5847,-81.7006,82.42,74,40,10.36,CO,1707606909
246,greymouth,-42.4667,171.2,61.48,40,54,4.65,NZ,1707606909
247,mejit,10.2753,170.8646,80.1,68,100,18.07,MH,1707606910
248,port saint john's,-31.6229,29.5448,64.35,95,96,1.03,ZA,1707606910
249,greenville,35.6127,-77.3663,69.96,64,75,6.91,US,1707606887
250,katsuren-haebaru,26.3369,127.8719,60.82,53,20,6.91,JP,1707606910
251,new ulm,44.3125,-94.4605,35.44,70,100,8.05,US,1707606911
252,port alfred,-33.5906,26.891,61.18,91,35,1.01,ZA,1707606911
253,juneau,58.3019,-134.4197,37.4,95,100,16.11,US,1707606911
254,tuy hoa,13.0833,109.3,70.95,92,100,14.18,VN,1707606911
255,marsh harbour,26.5412,-77.0636,72.63,63,100,12.17,BS,1707606640
256,chadan,51.2833,91.5833,-11.13,95,97,2.62,RU,1707606912
257,kolonia,50.9333,6.95,49.96,88,100,3.04,DE,1707606842
258,dunedin,-45.8742,170.5036,53.8,68,99,8.99,NZ,1707606913
259,sydney,-33.8679,151.2073,75.34,64,75,6.91,AU,1707606839
260,coahuayana de hidalgo,18.7,-103.6583,80.38,60,30,9.08,MX,1707606914
261,pokhara,28.2333,83.9833,53.26,21,0,6.6,NP,1707606724
262,kavaratti,10.5669,72.642,81.46,73,77,6.96,IN,1707606914
263,kailua-kona,19.6406,-155.9956,80.56,69,40,10.36,US,1707606874
264,zeribet el oued,34.6828,6.5111,58.91,51,1,17.56,DZ,1707606915
265,bam,29.106,58.357,53.83,45,45,10.33,IR,1707606915
266,say,13.1007,2.3689,75.76,10,0,7.2,NE,1707606915
267,puerto baquerizo moreno,-0.9,-89.6,79.52,81,69,8.57,EC,1707606745
268,la'ie,21.6477,-157.9253,79.02,69,79,5.99,US,1707606916
269,constantia,44.1833,28.65,52.7,82,98,11.61,RO,1707606916
270,cudillero,43.5622,-6.1459,49.66,61,75,11.5,ES,1707606916
271,enewetak,11.3474,162.3373,79.75,80,94,22.3,MH,1707606916
272,kiunga,-6.1219,141.2906,78.01,93,100,1.07,PG,1707606916
273,shira,54.4911,89.9531,19.33,76,100,14.79,RU,1707606917
274,kingston,17.997,-76.7936,79.75,75,40,14.97,JM,1707606917
275,wewak,-3.5534,143.6268,82.06,80,100,5.57,PG,1707606917
276,harstad,68.799,16.5293,28.15,92,96,15.99,NO,1707606918
277,east london,-33.0153,27.9116,64.6,77,49,3.42,ZA,1707606918
278,piton saint-leu,-21.2196,55.3151,75.27,78,0,6.91,RE,1707606918
279,hotan,37.0997,79.9269,31.57,55,1,1.19,CN,1707606918
280,verkhnevilyuysk,63.4453,120.3167,-19.01,96,100,8.46,RU,1707606918
281,constitucion,-35.3333,-72.4167,59.49,87,16,23.11,CL,1707606918
282,saint-denis,48.9167,2.3333,46.76,91,40,9.22,FR,1707606919
283,ketchikan,55.3422,-131.6461,43.27,87,40,5.75,US,1707606919
284,karlovo,42.6333,24.8,57.38,62,100,4.14,BG,1707606919
285,kapuskasing,49.4169,-82.4331,21.29,79,100,14.97,CA,1707606920
286,hiratacho,35.4333,132.8167,39.16,87,75,5.75,JP,1707606920
287,howrah,22.5892,88.3103,59.0,82,0,0.0,IN,1707606920
288,la ronge,55.1001,-105.2842,19.65,73,100,5.75,CA,1707606920
289,argo,37.6333,22.7333,61.79,68,100,3.91,GR,1707606921
290,daru,-9.0763,143.2092,81.16,82,89,5.17,PG,1707606921
291,oliver,49.1831,-119.5524,39.11,56,92,2.3,CA,1707606921
292,newman,37.3138,-121.0208,58.14,51,2,4.0,US,1707606921
293,muynoq,43.7683,59.0214,46.4,74,12,11.3,UZ,1707606922
294,bingol,38.8847,40.4939,35.33,88,24,5.23,TR,1707606740
295,sidrolandia,-20.9319,-54.9614,71.33,92,100,5.12,BR,1707606922
296,sheridan,44.8333,-106.9173,33.03,69,100,6.91,US,1707606922
297,yar,58.249,52.1026,-9.18,100,79,5.19,RU,1707606922
298,yuzhno-kurilsk,44.0306,145.8556,25.38,93,100,6.62,RU,1707606923
299,mata-utu,-13.2816,-176.1745,83.91,82,100,21.12,WF,1707606923
300,kingaroy,-26.5333,151.8333,74.7,66,88,13.53,AU,1707606923
301,bayang,7.7928,124.1917,69.01,94,88,5.44,PH,1707606923
302,tyuratam,45.6507,63.3156,31.66,92,100,12.37,KZ,1707606923
303,igarapava,-20.0383,-47.7469,83.32,63,100,6.91,BR,1707606924
304,revda,56.801,59.9303,-1.62,95,100,13.09,RU,1707606924
305,amalapuram,16.5833,82.0167,69.58,92,59,3.74,IN,1707606924
306,al jawf,29.5,38.75,50.5,53,0,9.6,SA,1707606924
307,tazacorte,28.629,-17.9293,67.15,91,0,4.0,ES,1707606925
308,fuerte olimpo,-21.0415,-57.8738,75.7,97,100,0.96,PY,1707606925
309,el granada,37.5027,-122.4694,63.91,60,0,14.97,US,1707606925
310,howard springs,-12.497,131.047,84.11,96,82,1.88,AU,1707606925
311,northam,51.0333,-4.2167,49.66,96,66,7.29,GB,1707606926
312,domanic,39.8,29.6167,47.17,71,100,9.46,TR,1707606926
313,la passe,45.5549,-0.8967,50.23,85,71,26.24,FR,1707606926
314,petropavlovsk-kamchatsky,53.0452,158.6483,9.19,91,0,8.95,RU,1707606926
315,lebu,-37.6167,-73.65,59.25,92,34,16.78,CL,1707606926
316,namibe,-15.1961,12.1522,75.51,86,100,8.75,AO,1707606927
317,egirdir,37.8746,30.8504,43.88,92,85,8.72,TR,1707606927
318,rikaze,29.25,88.8833,19.63,51,0,2.71,CN,1707606927
319,al ghayzah,16.2079,52.176,70.21,80,18,4.7,YE,1707606927
320,genova,44.5,9.0667,49.1,90,100,5.99,IT,1707606927
321,pavlovsk,50.4578,40.1081,30.94,95,100,14.14,RU,1707606928
322,prado,-17.3411,-39.2208,77.67,83,22,8.32,BR,1707606928
323,kurchatov,51.6601,35.6521,30.42,96,100,15.46,RU,1707606928
324,horsham,51.064,-0.3272,47.75,84,75,3.44,GB,1707606928
325,ebon,4.582,168.6964,79.02,88,100,22.37,MH,1707606929
326,port augusta,-32.5,137.7667,82.17,33,0,8.03,AU,1707606929
327,sola,-13.8833,167.55,82.31,77,47,15.99,VU,1707606929
328,callao,-12.0667,-77.15,80.89,69,20,14.97,PE,1707606929
329,susanville,40.4163,-120.653,41.81,54,0,6.91,US,1707606929
330,maintirano,-18.0667,44.0167,82.24,82,100,4.94,MG,1707606930
331,cabedelo,-6.9811,-34.8339,83.07,78,81,12.12,BR,1707606930
332,badger,64.8,-147.5333,19.65,88,0,0.0,US,1707606930
333,tamanrasset,22.785,5.5228,53.51,13,0,4.61,DZ,1707606930
334,rio grande,-32.035,-52.0986,75.31,95,64,12.86,BR,1707606931
335,poronaysk,49.2167,143.1167,-5.06,96,66,3.91,RU,1707606931
336,hammerfest,70.6634,23.6821,16.25,100,14,3.44,NO,1707606931
337,tynda,55.1667,124.7167,-22.2,100,99,0.47,RU,1707606931
338,al hadd,26.2456,50.6542,66.18,77,0,9.22,BH,1707606932
339,uliastay,47.7417,96.8444,5.5,72,4,6.64,MN,1707606932
340,bosobolo,4.1833,19.9,77.31,31,62,2.42,CD,1707606932
341,jiexiu,37.0244,111.9125,29.59,57,1,4.21,CN,1707606932
342,kirando,-7.4167,30.6,73.36,86,100,8.37,TZ,1707606932
343,tweed heads,-28.1817,153.547,80.96,94,75,8.05,AU,1707606932
344,nyurba,63.2842,118.3319,-18.67,96,98,8.03,RU,1707606933
345,gebeit,21.0667,36.3167,61.0,72,0,2.73,SD,1707606933
346,pandan,14.0453,124.1694,76.93,79,71,15.17,PH,1707606933
347,ust'-ilimsk,58.0006,102.6619,23.43,88,100,5.99,RU,1707606933
348,pariaman,-0.619,100.12,77.05,75,76,3.49,ID,1707606933
349,carolina,18.3808,-65.9574,77.36,72,75,11.5,PR,1707606934
350,luwuk,-0.9516,122.7875,79.95,79,99,4.25,ID,1707606714
351,lakheri,25.6667,76.1667,53.58,39,0,6.08,IN,1707606934
352,abalak,58.1286,68.5944,11.34,93,100,8.9,RU,1707606934
353,turrialba,9.9047,-83.6835,82.11,85,99,3.62,CR,1707606935
354,agaro,7.85,36.65,63.07,87,81,1.39,ET,1707606935
355,gao,16.6362,1.637,72.25,9,0,6.44,ML,1707606935
356,ontinyent,38.8167,-0.6167,51.49,59,24,23.76,ES,1707606935
357,miri,4.4148,114.0089,78.94,89,40,5.75,MY,1707606936
358,manokwari,-0.8667,134.0833,79.75,79,94,2.77,ID,1707606936
359,twon-brass,4.3151,6.2418,82.11,84,64,7.11,NG,1707606936
360,alice springs,-23.7,133.8833,83.75,58,75,0.0,AU,1707606775
361,tromso,69.6496,18.957,24.82,86,40,12.66,NO,1707606936
362,saint-francois,46.4154,3.9054,44.04,83,75,4.61,FR,1707606937
363,alghero,40.5589,8.3181,55.49,67,40,10.36,IT,1707606937
364,asaita,11.5636,41.4394,78.35,64,12,9.24,ET,1707606937
365,las tablas,7.7667,-80.2833,79.18,99,81,22.08,PA,1707606937
366,westport,41.1415,-73.3579,57.27,68,92,4.0,US,1707606797
367,vadso,70.0744,29.7487,8.76,85,100,13.8,NO,1707606938
368,kapa'a,22.0752,-159.319,80.58,77,40,6.91,US,1707606938
369,kidal,18.4411,1.4078,71.2,9,1,3.47,ML,1707606938
370,gazojak,41.1875,61.4036,49.05,55,77,7.16,TM,1707606939
371,novaya igirma,57.1334,103.9112,27.7,84,100,9.04,RU,1707606939
372,paciran,-6.8767,112.3761,77.49,90,100,7.31,ID,1707606939
373,champerico,14.3,-91.9167,81.9,62,2,9.82,GT,1707606939
374,shakiso,5.75,38.9167,65.41,68,94,3.2,ET,1707606940
375,chinde,26.8418,88.0763,47.3,49,0,5.41,NP,1707606940
376,bereeda,11.8704,51.0579,76.12,77,47,7.99,SO,1707606940
377,cidreira,-30.1811,-50.2056,75.72,95,93,9.86,BR,1707606940
378,petropavl,54.8753,69.1628,-7.1,98,59,10.11,KZ,1707606940
379,filadelfia,39.9523,-75.1638,56.16,76,100,6.91,US,1707606869
380,luganville,-15.5333,167.1667,86.25,67,6,8.14,VU,1707606941
381,aswan,24.0934,32.907,58.03,28,0,7.74,EG,1707606941
382,lagoa santa,-19.6272,-43.8897,77.97,67,75,9.22,BR,1707606941
383,ilhabela,-23.7781,-45.3581,75.43,94,37,7.14,BR,1707606941
384,noosa heads,-26.3833,153.15,78.33,62,66,13.67,AU,1707606942
385,mosjoen,65.836,13.1908,-1.68,84,6,2.3,NO,1707606942
386,altai,46.3722,96.2583,15.24,60,3,7.76,MN,1707606942
387,santa cruz,-17.8,-63.1667,80.65,83,75,6.91,BO,1707606863
388,touros,-5.1989,-35.4608,82.22,79,68,20.18,BR,1707606942
389,ko samui,9.5357,99.9357,81.9,74,46,20.51,TH,1707606811
390,gizo,-8.103,156.8419,82.31,80,100,15.03,SB,1707606943
391,hirara,24.8,125.2833,60.66,63,40,13.8,JP,1707606943
392,paros,37.0833,25.15,63.3,77,90,10.36,GR,1707606925
393,remire-montjoly,4.9167,-52.2667,80.64,83,40,3.44,GF,1707606943
394,bykhaw,53.5193,30.2469,26.19,94,100,13.35,BY,1707606944
395,sarigerme,36.7155,28.7044,58.51,82,75,11.5,TR,1707606944
396,ghadamis,30.1337,9.5007,64.65,30,100,7.23,LY,1707606944
397,amungan,15.3652,119.9582,74.66,75,8,5.23,PH,1707606944
398,horta,38.5333,-28.6333,63.01,94,100,15.01,PT,1707606944
399,opuwo,-18.0607,13.84,75.31,66,100,6.49,NA,1707606945
400,kerikeri,-35.2268,173.9474,74.91,56,26,3.0,NZ,1707606945
401,chipata,-13.6333,32.65,67.5,77,100,3.78,ZM,1707606945
402,vila velha,-20.3297,-40.2925,78.75,91,75,4.61,BR,1707606945
403,iraquara,-12.2486,-41.6194,66.67,98,100,3.71,BR,1707606708
404,rantoul,40.3084,-88.1559,39.52,78,0,6.91,US,1707606946
405,kisanga,-7.4362,37.7034,75.72,90,50,2.98,TZ,1707606946
406,svencionys,55.15,26.1667,27.25,93,100,8.93,LT,1707606947
407,tralee,52.2704,-9.7026,47.73,79,85,19.98,IE,1707606947
408,hadibu,12.65,54.0333,75.58,78,53,8.23,YE,1707606947
409,sisimiut,66.9395,-53.6735,-2.36,83,100,9.51,GL,1707606947
410,puerto maldonado,-12.6,-69.1833,86.4,79,40,3.44,PE,1707606948
411,batticaloa,7.7102,81.6924,79.38,69,100,11.1,LK,1707606948
412,tozeur,33.9197,8.1335,64.8,32,40,24.16,TN,1707606948
413,alesund,62.4723,6.1549,28.54,53,100,11.5,NO,1707606948
414,mount gambier,-37.8333,140.7667,73.13,39,0,1.72,AU,1707606654
415,nieuw amsterdam,5.8833,-55.0833,82.56,74,20,8.05,SR,1707606949
416,muroran,42.3172,140.9881,27.55,76,50,12.66,JP,1707606949
417,general roca,-39.0333,-67.5833,80.62,31,58,3.74,AR,1707606949
418,murzuq,25.9155,13.9184,62.42,14,90,12.68,LY,1707606949
419,jawf al maqbabah,13.8378,45.8349,65.57,71,15,3.0,YE,1707606949
420,la sarre,48.8002,-79.1996,30.07,96,100,6.73,CA,1707606702
421,cambria,35.5641,-121.0808,61.41,72,1,4.0,US,1707606950
422,arraial do cabo,-22.9661,-42.0278,76.68,79,36,10.78,BR,1707606950
423,kodinsk,58.6881,99.1844,19.44,95,74,4.21,RU,1707606950
424,sinabang,2.4803,96.3801,78.39,86,54,2.62,ID,1707606950
425,timmins,48.4669,-81.3331,30.02,93,100,9.22,CA,1707606951
426,quellon,-43.1167,-73.6167,59.36,76,18,8.86,CL,1707606951
427,fort bragg,35.139,-79.006,69.82,64,75,9.22,US,1707606951
428,voronovytsya,49.1095,28.6808,44.13,86,91,7.02,UA,1707606952
429,yeppoon,-23.1333,150.7333,83.98,52,5,11.83,AU,1707606952
430,ibiza,38.9088,1.433,57.22,62,0,59.84,ES,1707606952
431,lautoka,-17.6167,177.4667,87.66,74,75,14.97,FJ,1707606952
432,sechura,-5.5569,-80.8222,84.63,63,60,16.26,PE,1707606952
433,okhotsk,59.3833,143.3,-20.06,82,68,7.87,RU,1707606953
434,male,4.1748,73.5089,82.35,83,40,18.41,MV,1707606953
435,nago,26.5881,127.9761,59.45,61,2,11.92,JP,1707606953
436,payette,44.0782,-116.9338,46.54,37,0,4.61,US,1707606953
437,mar del plata,-38.0023,-57.5575,75.09,99,100,21.99,AR,1707606953
438,gaogou,34.0175,119.1886,33.82,77,0,5.99,CN,1707606954
439,puerto leguizamo,-0.1934,-74.7819,80.38,82,81,1.72,CO,1707606954
440,aykhal,66.0,111.5,-37.46,100,100,4.9,RU,1707606954
441,verkhniye kigi,55.4083,58.6044,-8.72,98,99,7.56,RU,1707606954
442,natal,-5.795,-35.2094,83.05,78,20,11.5,BR,1707606954
443,chos malal,-37.3781,-70.2709,83.25,16,10,11.05,AR,1707606955
444,gumdag,39.2061,54.5906,50.97,58,4,5.73,TM,1707606955
445,dese,11.1333,39.6333,55.99,72,59,2.89,ET,1707606955
446,socorro,31.6546,-106.3033,50.05,44,100,15.97,US,1707606677
447,kavieng,-2.5744,150.7967,84.18,74,83,8.61,PG,1707606956
448,brookings,44.3114,-96.7984,32.11,80,100,11.5,US,1707606930
449,sur,22.5667,59.5289,72.86,75,2,9.53,OM,1707606956
450,xining,36.6167,101.7667,12.83,71,2,4.81,CN,1707606956
451,wanning,18.8003,110.3967,59.0,84,91,9.6,CN,1707606956
452,mantua,45.1667,10.7833,51.1,97,100,8.99,IT,1707606870
453,tecozautla,20.5333,-99.6333,82.36,8,2,22.01,MX,1707606957
454,mandal,25.45,74.5667,53.51,37,0,5.84,IN,1707606957
455,bukittinggi,-0.3091,100.3706,65.12,95,85,3.76,ID,1707606957
456,tantou,26.0314,119.5986,42.57,87,0,2.24,CN,1707606957
457,davlekanovo,54.2215,55.0343,-15.48,100,27,3.78,RU,1707606958
458,mezhdurechenskiy,59.6,65.9333,-1.21,96,92,5.08,RU,1707606958
459,santa rita,-7.1139,-34.9781,83.07,78,0,6.91,BR,1707606958
460,banki,20.3833,85.5333,62.71,60,3,1.48,IN,1707606958
461,al qadarif,14.0349,35.3834,75.15,17,0,9.46,SD,1707606958
462,tarija,-21.5355,-64.7296,73.31,64,75,5.75,BO,1707606959
463,laguna,38.421,-121.4238,62.15,41,0,5.75,US,1707606959
464,tokar,18.4254,37.729,73.31,74,29,11.36,SD,1707606959
465,yaren,-0.5472,166.916,83.61,74,100,13.18,NR,1707606959
466,dalandzadgad,43.5708,104.425,16.52,63,3,5.93,MN,1707606959
467,slave lake,55.2834,-114.769,21.18,73,0,2.3,CA,1707606946
468,pattaya,12.9333,100.8833,80.1,54,57,16.58,TH,1707606960
469,guatire,10.4762,-66.5427,73.26,94,30,3.53,VE,1707606960
470,hakui,36.8833,136.7833,38.12,65,100,2.13,JP,1707606960
471,oak hill,37.9723,-81.1487,55.8,88,100,5.66,US,1707606960
472,greenland,43.0362,-70.8328,55.51,69,75,4.61,US,1707606961
473,litvinov,50.6042,13.6181,47.73,92,100,4.05,CZ,1707606961
474,udgir,18.3833,77.1167,73.36,43,16,5.91,IN,1707606961
475,callaway,30.153,-85.5699,68.05,87,0,17.27,US,1707606961
476,mahdia,35.5047,11.0622,55.35,74,38,1.59,TN,1707606961
477,bairnsdale,-37.8333,147.6167,77.05,66,0,1.01,AU,1707606962
478,laojunmiao,39.8333,97.7333,25.63,22,74,2.15,CN,1707606962
479,port douglas,-16.4833,145.4667,83.84,66,34,4.68,AU,1707606962
480,barra de santo antonio,-9.4047,-35.5072,78.08,83,98,6.67,BR,1707606962
481,kununurra,-15.7667,128.7333,76.98,94,75,4.61,AU,1707606962
482,krasnyy chikoy,50.3643,108.7512,1.49,97,51,2.37,RU,1707606963
483,priolo gargallo,37.1572,15.1802,57.94,73,86,17.0,IT,1707606963
484,broome,42.2506,-75.833,49.21,94,40,6.91,US,1707606963
485,sao vicente,-23.9631,-46.3919,82.58,49,41,8.01,BR,1707606963
486,childress,34.4264,-100.204,48.45,71,100,9.22,US,1707606964
487,porbandar,21.6422,69.6093,68.34,39,0,10.47,IN,1707606964
488,vilyuchinsk,52.9306,158.4028,10.67,74,26,9.78,RU,1707606964
489,aripuana,-9.1667,-60.6333,76.51,94,90,1.88,BR,1707606964
490,beihai,21.4833,109.1,58.6,62,65,7.05,CN,1707606964
491,al faw,29.9776,48.4741,64.4,76,99,10.27,IQ,1707606965
492,qaqortoq,60.7167,-46.0333,-9.45,81,0,10.58,GL,1707606965
493,bumba,2.1833,22.4667,77.52,48,94,3.42,CD,1707606965
494,san martin,-33.081,-68.4681,81.14,51,89,10.85,AR,1707606966
495,el calafate,-50.3408,-72.2768,65.84,51,61,11.03,AR,1707606966
496,nuku'alofa,-21.1333,-175.2,82.08,79,90,12.57,TO,1707606966
497,nema,57.5067,50.5011,-9.04,100,67,4.68,RU,1707606967
498,kruisfontein,-34.0033,24.7314,58.73,83,7,4.23,ZA,1707606967
499,la banda,-27.7335,-64.2428,90.36,48,93,5.44,AR,1707606967
500,una,20.8167,71.0333,66.63,31,0,7.52,IN,1707606967
501,flin flon,54.7682,-101.865,13.84,73,100,3.44,CA,1707606968
502,egilsstadir,65.2653,-14.3948,24.71,93,75,2.3,IS,1707606968
503,colares,38.7992,-9.4469,53.76,79,42,7.0,PT,1707606968
504,usinsk,65.9939,57.5281,-18.92,99,61,8.99,RU,1707606968
505,vernon,50.2581,-119.2691,37.76,74,73,2.3,CA,1707606969
506,boa vista,2.8197,-60.6733,89.58,48,20,16.11,BR,1707606876
507,asbury lake,30.0491,-81.8215,74.26,60,40,6.91,US,1707606969
508,tadine,-21.55,167.8833,81.3,69,35,13.91,NC,1707606969
509,cabo san lucas,22.8909,-109.9124,74.61,53,0,21.85,MX,1707606969
510,kokemaki,61.2565,22.3564,4.78,97,73,5.12,FI,1707606970
511,jasper,37.2001,-94.3502,46.45,58,0,11.5,US,1707606970
512,itaituba,-4.2761,-55.9836,82.56,78,40,5.75,BR,1707606970
513,novo aripuana,-5.1206,-60.3797,79.9,85,100,3.76,BR,1707606970
514,les cayes,18.2,-73.75,73.13,74,70,3.51,HT,1707606971
515,kabalo,-6.05,26.9167,71.42,89,100,1.57,CD,1707606971
516,shingu,33.7333,135.9833,40.05,71,4,5.55,JP,1707606971
517,calabar,4.9517,8.322,81.64,79,56,3.11,NG,1707606972
518,roxas,11.5853,122.7511,76.14,77,31,16.37,PH,1707606760
519,whakatane,-37.9585,176.9854,75.88,58,0,5.01,NZ,1707606972
520,ushtobe,45.2514,77.9838,35.76,65,56,7.56,KZ,1707606972
521,tieli,46.95,128.05,-6.18,100,87,4.25,CN,1707606972
522,patacamaya,-17.2333,-67.9167,54.63,69,100,7.2,BO,1707606973
523,calama,-22.4667,-68.9333,73.89,25,0,24.16,CL,1707606973
524,nyzhni sirohozy,46.8484,34.3804,44.73,97,90,7.45,UA,1707606973
525,xiahu,26.6106,119.9483,47.16,75,0,6.31,CN,1707606797
526,ulysses,37.5814,-101.3552,37.69,100,100,16.11,US,1707606973
527,koidu,8.4167,-10.8333,75.74,83,8,3.13,SL,1707606974
528,cameron,26.117,-97.5169,76.1,87,100,12.66,US,1707606974
529,ixtlan del rio,21.0333,-104.3667,78.08,26,88,9.64,MX,1707606959
530,jagannathpur,22.2333,85.65,58.57,28,1,2.55,IN,1707606974
531,temiskaming shores,47.4938,-79.7153,35.4,99,100,4.16,CA,1707606974
532,manapparai,10.6,78.4167,76.06,88,45,2.73,IN,1707606975
533,vilyuysk,63.7553,121.6247,-20.88,96,100,8.84,RU,1707606975
534,ardestan,33.3761,52.3694,46.98,32,99,0.31,IR,1707606975
535,shushtar,32.0455,48.8567,62.13,40,100,3.15,IR,1707606976
536,korla,41.7597,86.1469,27.79,70,27,1.28,CN,1707606976
537,kapit,2.0167,112.9333,74.75,99,100,0.83,MY,1707606976
538,lamu,-2.2717,40.902,80.24,85,97,11.45,KE,1707606976
539,biala podlaska,52.0324,23.1165,38.05,99,100,8.59,PL,1707606977
540,adamovka,51.5223,59.9396,-14.3,98,6,4.79,RU,1707606977
541,albesti,47.7,27.0667,46.04,68,92,6.11,RO,1707606977
542,haiku-pauwela,20.9219,-156.3051,78.82,70,40,17.27,US,1707606977
543,isoka,-10.1606,32.6335,64.78,93,100,0.58,ZM,1707606978
544,macheng,31.1783,115.0319,41.9,80,0,2.82,CN,1707606978
545,ouarzazat,30.9189,-6.8934,55.69,38,20,6.91,MA,1707606978
546,zhosaly,45.4878,64.0781,33.06,91,100,9.78,KZ,1707606978
547,naze,28.3667,129.4833,54.52,59,6,12.73,JP,1707606979
548,teloloapan,18.35,-99.85,79.16,24,25,7.05,MX,1707606979
549,sao gotardo,-19.3111,-46.0489,69.62,84,100,5.55,BR,1707606979
550,peschanokopskoye,46.1961,41.0775,49.51,70,100,9.51,RU,1707606980
551,kishapu,-3.6167,33.8667,68.63,87,72,1.68,TZ,1707606980
552,tateyama,34.9833,139.8667,47.1,56,99,14.9,JP,1707606980
553,bayanaul,50.7889,75.6956,13.03,81,99,12.68,KZ,1707606980
554,princeton,25.5384,-80.4089,74.01,73,100,11.5,US,1707606981
555,lagos,6.5833,3.75,84.52,87,71,5.01,NG,1707606927
556,sarkand,45.41,79.9186,36.61,62,45,10.63,KZ,1707606981
557,mascoutah,38.4903,-89.7932,45.07,62,75,9.22,US,1707606981
558,zhanjiang,21.2815,110.3427,54.57,78,23,3.89,CN,1707606981
559,richmond,37.5538,-77.4603,59.92,92,100,6.91,US,1707606982
560,los frentones,-26.4077,-61.4137,85.08,62,56,7.4,AR,1707606982
561,sao jose da coroa grande,-8.8978,-35.1478,80.82,80,92,8.12,BR,1707606735
562,feicheng,35.2606,117.9675,33.98,59,0,3.94,CN,1707606982
563,bijie,27.3125,105.2942,39.36,61,19,5.77,CN,1707606983
564,dainville,50.281,2.726,46.71,95,100,8.59,FR,1707606983
565,lambarene,-0.7001,10.2406,78.31,92,95,2.26,GA,1707606983
566,posto fiscal rolim de moura,-13.0833,-62.2667,81.28,78,99,3.27,BR,1707606983
567,marabba,12.35,32.1833,75.06,15,0,12.44,SD,1707606984
568,tosontsengel,48.7567,98.2839,-5.33,90,17,0.94,MN,1707606984
569,tangstedt,53.7488,10.0645,42.78,99,100,12.66,DE,1707606984
570,vallenar,-28.5708,-70.7581,84.2,37,0,6.6,CL,1707606984
571,valdivia,-39.8142,-73.2459,65.16,67,27,4.61,CL,1707606721
572,toliara,-23.35,43.6667,83.19,79,45,13.56,MG,1707606985
573,bichena,10.45,38.2,59.49,68,91,1.63,ET,1707606985
574,letlhakeng,-24.0944,25.0298,74.75,53,54,3.78,BW,1707606985
